,city,latitude,longitude,attacktype,targtype,targsubtype,target,weaptype,weapsubtype,gname,Month,Day,Year
0,Samastipur,25.863042,85.781004,2036,876,296,Lalit Narayan Mishra and a legislator,2121,674,1,1,2,1975
1,Unknown,33.778175,76.576171,2036,368,29,A bus station in Kashmir,2121,75,4,3,29,1997
2,Dhalai district,23.846698,91.909924,2036,313,86,Border Patrol Guards,2121,265,62,11,7,1997
3,Hyderabad,17.376812,78.487812,2036,1538,19,"People leaving a party.  Wounded included Mohan Babu, a popular local movie star",2121,75,1414,11,19,1997
4,New Delhi,28.632381,77.220004,2036,1538,447,Civilians in New Delhi,2121,61,1414,1,9,1998
5,Wandhama,33.778175,76.576171,1514,1538,48,Hindu Civilians in Wandhama village,243,181,1414,1,25,1998
6,Nalbari district,26.444619,91.441053,1514,786,164,Bargela Police outpost,1813,180,238,2,4,1998
7,Coimbatore,11.016845,76.955832,2036,786,433,Indian Police in Coimbatore,2121,674,1414,2,14,1998
8,Coimbatore,11.016845,76.955832,2036,1538,66,Indian Civilians and property in Coimbatore,2121,75,12,2,14,1998
9,Coimbatore,11.016845,76.955832,2036,1538,66,Indian Civilians and property in Coimbatore,2121,75,12,2,14,1998
10,Coimbatore,11.016845,76.955832,2036,1538,66,Indian Civilians and property in Coimbatore,2121,75,12,2,14,1998
11,Coimbatore,11.016845,76.955832,2036,1538,66,Indian Civilians and property in Coimbatore,2121,75,12,2,14,1998
12,Coimbatore,11.016845,76.955832,2036,1538,66,Indian Civilians and property in Coimbatore,2121,75,12,2,14,1998
13,Coimbatore,11.016845,76.955832,2036,1538,66,Indian Civilians and property in Coimbatore,2121,75,12,2,14,1998
14,Coimbatore,11.016845,76.955832,2036,1538,66,Indian Civilians and property in Coimbatore,2121,75,12,2,14,1998
15,Coimbatore,11.016845,76.955832,2036,1538,66,Indian Civilians and property in Coimbatore,2121,75,12,2,14,1998
16,Coimbatore,11.016845,76.955832,2036,1538,66,Indian Civilians and property in Coimbatore,2121,75,12,2,14,1998
17,Coimbatore,11.016845,76.955832,2036,1538,66,Indian Civilians and property in Coimbatore,2121,75,12,2,14,1998
18,Coimbatore,11.016845,76.955832,2036,1538,66,Indian Civilians and property in Coimbatore,2121,75,12,2,14,1998
19,Coimbatore,11.016845,76.955832,2036,1538,66,Indian Civilians and property in Coimbatore,2121,75,12,2,14,1998
20,Mumbai,19.075984,72.877656,2036,368,205,A railway station in Mumbai,2121,61,1414,2,27,1998
21,Mumbai,19.075984,72.877656,2036,368,205,A railway station in Mumbai,2121,61,1414,2,27,1998
22,Virar,19.45067,72.812571,2036,368,205,A railway station in Virar,2121,11,1414,2,27,1998
23,Thub,33.200294,74.730781,1514,1538,447,"Residents of Thub Village, Pakistan",1813,180,1414,4,18,1998
24,Udhampur district,32.925224,75.135264,1514,1538,447,"Residents of Barankot, India",1813,180,1414,4,22,1998
25,Surankot,33.639869,74.263416,1514,1538,66,Indian civilians of the Punch District,1813,1564,1414,5,5,1998
26,Doda district,33.14575,75.548049,1514,1538,66,Indian civilians of the Doda District,1813,1564,1414,5,5,1998
27,Chapnali,33.778175,76.576171,1514,1538,19,Hindu Wedding Party,1813,180,1414,6,19,1998
28,Kokrajhar District,26.398022,90.269415,1514,786,433,Indian Policemen in Kokrajhar District,1813,180,1414,7,17,1998
29,Chanapora,34.033703,74.808308,1514,1538,447,Citizens of Channa,1813,1564,1414,7,28,1998
30,Swaram,33.778175,76.576171,1514,1538,447,Citizens of Swaran,1813,1564,1414,7,28,1998
31,Dhamdhama,26.556685,91.479862,2036,1538,78,Civilians at the Dhamdhama weekly market,2121,80,8,7,29,1998
32,Mainaopuri,26.200604,92.937574,2036,1538,447,Bodo Villagers,2121,674,1414,7,29,1998
33,Kokrajhar,26.398022,90.269415,1514,1538,447,Bodo Villagers,243,25,1414,7,29,1998
34,Amarpur,23.519468,91.654209,1514,1538,447,"Civilians in Amarpur, India",1813,1564,62,8,2,1998
35,Kalaban,32.501944,76.021667,1514,417,142,Housing road construction laborers in Kalabanh,1813,180,1414,8,3,1998
36,Satrandi,31.104829,77.17339,1514,1538,447,"Civilians in Satrandi, India",1813,1564,1414,8,3,1998
37,Siala,33.778175,76.576171,1514,1538,189,"Relatives of Imtiaz, a militant of the Tehrik-e-Jihad group",1813,1564,88,8,3,1998
38,Srinagar,34.083658,74.797368,2036,786,433,"Kashmir Police in Srinagar, India",2121,533,1414,8,4,1998
39,Udhampur district,32.925224,75.135264,1514,1538,48,"Hindus in Balmatkote, India",1813,1564,1414,8,4,1998
40,Unknown,33.778175,76.576171,1514,1538,447,"Civilians in Kashmir, India",1813,1564,1414,8,4,1998
41,Vizianagaram district,18.106658,83.395551,1514,786,433,"Indian Police officers in Kuppuguda, India",1813,1564,61,8,9,1998
42,Guwahati,26.179222,91.753346,2036,313,77,"Indian soldiers at a railway station in Guwahati, India",2121,80,1414,8,24,1998
43,Saraikhola,26.209015,92.938442,2036,368,43,Bridge on the Tarang River,2121,61,1414,9,25,1998
44,Srinagar,34.083658,74.797368,2036,313,77,Kashmir Border Guards,2121,61,1414,9,25,1998
45,Bangwani,33.778175,76.576171,2036,1538,189,"Relatives of a Pro-Government Militant in South Kashmir, India",2121,80,1414,10,6,1998
46,Chawmanu,23.851472,91.995504,1514,86,73,Leader: Mr. Santi Kuma Tripura,1813,1564,62,10,8,1998
47,Unknown,23.940848,91.988153,1514,86,73,Member: Mr. Lalit Devbarma,243,181,62,10,8,1998
48,Unknown,26.275268,92.953375,1514,1538,447,"Residents of Assam, India",1813,1564,8,10,8,1998
49,Dantewada District,18.9,81.35,2036,786,433,"Indian Policemen in Dantewada, India",2121,265,34,10,8,1998
50,Tamahart,26.303465,89.851099,1514,876,143,"Forestry Guards in Tamahat, India",1813,1564,1414,10,10,1998
51,Sonitpor district,26.678779,92.857672,1514,1538,447,"Residents of Sonitpur, India",1813,1564,106,10,10,1998
52,Gelnel,25.209087,93.817886,1514,368,74,"Civilians traveling on two passenger buses, escorted by Manipur Rifles personnel",1813,180,1414,10,16,1998
53,Athiabari,26.398022,90.269415,1514,1538,447,"Civilians in Kokrajhar District, India",1813,180,8,10,17,1998
54,Safa Pora,34.238199,74.660068,2036,313,77,"Indian Army troops in Safapura, India",2121,265,1414,10,23,1998
55,Patacharkuchi,26.51313,91.257351,1514,786,433,"Indian police officers in Patacharkuchi, India",1813,1564,8,11,7,1998
56,Srinagar,34.083658,74.797368,2036,66,221,"Hazratbal Shrine, in Srinagar",2121,533,1414,11,19,1998
57,Anantnag,33.733336,75.148983,2036,786,164,"Police Station in Anantnag, India",2121,533,1414,11,21,1998
58,Sriguhphara,33.816087,75.213843,2036,786,171,"Two Indian patrol jeeps in Sriguhphara,  India",2121,265,1414,11,24,1998
59,Tinsukia district,27.491929,95.347833,2036,47,14,"Diesel pipeline between the Digboi oil refinery and Tinsukia, India",2121,674,238,11,26,1998
60,Moranhat,27.178162,94.916653,1514,786,433,"Central Industrial Security Force in Moranhat, India",1813,1564,238,11,27,1998
61,Nalli,27.442264,94.258405,2036,47,14,"Oil pipeline near Nalli, India",2121,674,238,11,27,1998
62,Darrang District,26.459018,92.024804,2036,368,43,"Major bridge in Darrang District, India",2121,674,238,11,27,1998
63,New Delhi,28.632381,77.220004,200,876,296,Chief Minister Prafulla Kumar Mahanta,2121,75,1414,12,18,1998
64,Guwahati,26.179222,91.753346,2036,786,433,"Policemen in Guwahati, India",2121,80,238,12,20,1998
65,Pattan,34.16047,74.555116,2036,786,164,"Police complex in Pattan, India",2121,43,1414,1,4,1999
66,Manoharpur,22.232255,83.685368,1514,1538,48,"Christian Missionary and his two sons in Manoharpur, India",382,329,5,1,23,1999
67,Allahabad,25.435801,81.846311,33,66,19,"Five Christian missionaries at a Hindu pilgrimage site in Allahabad, India",243,30,5,1,25,1999
68,Narayanpur,19.760181,78.705045,1514,1538,447,"Naxalite (Maoist guerrilla) sympathizers in Narayanpur, India",1813,1564,2,2,11,1999
69,Tuilaphai,24.340933,93.587597,1514,313,77,"Army soldiers traveling to Tuilaphai, India",1813,1564,1414,2,13,1999
70,Bhimpura,25.077604,84.914752,1514,1538,15,"Farmers in in Bhimpura, India",1813,1564,1,3,3,1999
71,Kurmol,24.663717,93.906269,1514,313,86,"Indian Army patrol near Kurmol, in Chandel District, India",1813,1564,1414,3,3,1999
72,Haflong,25.163535,93.01364,1514,786,433,"Four Central Reserve Police Force personnel in Haflong, India",1813,1564,92,3,13,1999
73,Sinari,25.096074,85.313119,1514,1538,447,"Civilians in Sinari, India",1813,180,24,3,18,1999
74,Unknown,23.164543,92.937574,1514,786,433,"Police in Mizoram, India",1813,180,33,3,24,1999
75,Attamohanpara,23.940848,91.988153,592,1538,447,"Three civilians in Attamohanpara, India",1813,1564,1414,3,27,1999
76,Udhampur district,32.925224,75.135264,2036,313,63,Badan Camp,1813,180,100,4,1,1999
77,Rajouri,33.371715,74.315313,2036,1538,447,Civilians and property in Rajauri,2121,674,1414,4,20,1999
78,Dadsara,33.904299,75.08549,200,876,315,"Ghulam Hassan Bhat, a leader of the National Conference; Sheeraz Ahmad Bhat, Ghulam's son",1813,180,88,5,5,1999
79,Lasana,33.702222,74.218611,1514,786,433,Two Special Operation Group (SOG) Constables,1813,1564,1414,5,10,1999
80,Guwahati,26.179222,91.753346,1514,786,433,An Indian police group moving between Hathikulai and Guwahati,1813,1564,238,5,11,1999
81,Kargil District,34.553852,76.134894,1514,313,77,Indian Army troops stationed in Kargil District,1813,180,92,5,12,1999
82,Kupwara District,34.526179,74.254614,200,876,315,Abdul Ahad Kar,1813,1564,1414,5,15,1999
83,Velpur,16.149549,79.862011,2036,786,164,Two police stations located in the town of Velpur,2121,80,61,5,24,1999
84,Chennai,13.08268,80.270718,2036,417,11,Victoria Hostel in Chennai,2121,674,92,5,30,1999
85,Chennai,13.08268,80.270718,2036,786,164,The Police Commissioner's office in the Egmore neighborhood of Chennai,2121,61,92,5,30,1999
86,Tiruchirappalli,10.815278,78.696389,2036,786,433,The Police Officers' Guest House on the Cantonment Police Station campus,2121,61,92,5,30,1999
87,Coimbatore,11.016845,76.955832,2036,786,164,The Police quarters under construction at Variety Hall Road in Coimbatore,2121,61,92,5,30,1999
88,Delhi,28.658188,77.227403,2036,786,164,Chandni Chowk Police Outpost,2121,61,1414,6,3,1999
89,Kangan,34.264018,74.901055,2036,313,77,Indian Army soldiers near Kangan,2121,265,1414,6,9,1999
90,Kupwara District,34.526179,74.254614,2036,786,433,Indian security personnel,2121,265,1414,6,12,1999
91,Srinagar,34.069832,74.809039,2036,1538,78,Ghanta Ghar Market at Lal Chowk in Srinagar,2121,533,1414,6,12,1999
92,Shiliguri,26.682957,88.443417,2036,1538,447,Civilians at the New Jalpaiguri railway station,2121,674,238,6,22,1999
93,Rajouri District,33.371715,74.315313,2036,313,77,Indian Army soldiers,2121,265,1414,6,26,1999
94,Dholabari,26.494608,91.678189,2036,786,171,Indian police vehicle in Dholabari,2121,75,238,6,28,1999
95,Mohra Bachai,33.653794,74.297154,127,1538,447,Civilians in Morabachai,371,403,92,6,28,1999
96,Sangam,33.827506,75.072066,1514,1538,266,Migrant workers from Madhya Pradesh,1813,1564,92,6,29,1999
97,Chandigarh,30.733315,76.779418,2036,1538,16,Parking Lot in Chandigarh,2121,674,92,6,30,1999
98,Surankot,33.639869,74.263416,1514,1538,48,"Relatives of the Hizbul Mujahideen's top four leaders in Surankot, India",1813,1564,1414,7,6,1999
99,Anantnag,33.733336,75.148983,1514,1538,266,"Hindu Laborers in in Anantnag, India",1813,1564,1414,7,7,1999
100,Poonch District,33.767001,74.092404,1514,1538,48,"Hindus in Poonch District, India",1813,1564,1414,7,8,1999
101,Madar,34.415556,74.656667,592,313,63,"A Campus of the Border Security Forces in Madar, India",2121,533,100,7,13,1999
102,Bandipora,34.419539,74.63827,1514,313,63,"A Campus of the Border Security Forces in Madar, India",1813,180,1414,7,13,1999
103,Budgam,34.021244,74.722282,1514,786,433,"District Police Lines in Badgam, India",2121,43,1414,7,18,1999
104,Lehota,33.778175,76.576171,1514,786,433,"Lihota Village Defense Committee Members in Lihota, India",1813,1564,88,7,19,1999
105,Mandi,33.795977,74.25388,1514,876,315,"Employees of the Border Roads Organization in Mandi, India",1813,180,88,7,19,1999
106,Baramulla,34.205141,74.349494,2036,1538,186,"Civilian at Auqaf Market, India",2121,533,1414,7,21,1999
107,Guwahati,26.179222,91.753346,2036,368,43,"Bridge in Guwahati, India",2121,674,1414,7,22,1999
108,Guwahati,26.179222,91.753346,2036,368,43,"Bridge in Guwahati, India",2121,674,1414,7,22,1999
109,Anantnag,33.733336,75.148983,2036,786,171,"Anantnag Police Patrol near a bus stand in Anantnag, India",2121,533,1414,7,24,1999
110,Karbi Anglong District,25.960734,93.497468,1514,313,66,"Assam Police in Karbi Anglong District, India",1813,1564,1414,7,27,1999
111,Humahama,33.778175,76.576171,2036,786,433,"Special Task Force of the Jammu and Kashmir Police Force at Humahama, India",2121,43,1414,7,29,1999
112,Unknown,10.850516,76.271083,33,66,19,Archbishop Mar Jacob Thoomkuzhy and an assisting priest.,7,403,1414,8,2,1999
113,Guwahati,26.179222,91.753346,592,417,18,"Gautam Roy, Manager of Chandighat Tea Estate",1813,1564,23,8,3,1999
114,Guwahati,26.179222,91.753346,592,417,18,"J. Sharma, Assistant Manager of Baladhan division of Burthol Tea Estate",1813,1564,23,8,4,1999
115,Kotkapura,30.580791,74.824222,592,1538,186,19-year-old son of Mr. Desa Singh Monga,1813,1564,1,8,5,1999
116,Chaki Natnusa,34.426355,74.322821,1514,313,63,"A Rashtriya Rifles post in Check-Natnusa village, India",2121,43,88,8,6,1999
117,Dhalai district,23.846698,91.909924,592,9,7,"Four office-holders of the Rashtriya Swayamsevak Sangh: Shyamal Sengupta, Sudhamay Dutta, Dinendra Dey and Shubaken Chakravarty",371,403,62,8,6,1999
118,Kupwara,34.526179,74.254614,1514,313,18,"Army jeep in Kupwara, India",1813,1564,88,8,7,1999
119,Bijni,26.49598,90.702507,2036,1538,447,Civilians on a passenger train traveling between Bijni and Patilidaha stations,2121,674,238,8,7,1999
120,Bijni,26.49598,90.702507,2036,1538,447,Civilians on a passenger train traveling between Bijni and Patilidaha stations,2121,674,238,8,7,1999
121,Trehgam,34.514753,74.173172,2036,313,63,"Army camp in Trehgam, India",2121,43,1414,8,8,1999
122,Salakati,26.442601,90.353772,2036,368,205,New Delhi-Guwahati Rajdhani Express travelling between Salakati and Kokrajhar,2121,674,1414,8,9,1999
123,Sonitpor district,26.678779,92.857672,2036,313,77,"Soldiers in Sonitpur district, India",2121,674,106,8,11,1999
124,Manasbal,34.256142,74.676269,2036,313,63,"Army camp at Manasbal, India",2121,43,1414,8,14,1999
125,Pahalgam,34.016075,75.31498,2036,313,63,"Army camp at Valgam, India",2121,43,1414,8,14,1999
126,Magam,34.091914,74.589914,2036,313,63,"Army camp at Magam, India",2121,43,1414,8,14,1999
127,Rajpora,33.822873,74.853637,2036,313,63,"Army camp at Rajpora, India",2121,43,1414,8,14,1999
128,Devar Lolab,34.455549,74.449553,2036,313,77,"Soldiers in the Devar-Lolab area of Kupwara district, India",2121,43,1414,8,14,1999
129,Chenani,33.035542,75.285157,2036,786,164,"Police Station in Chenani, India",2121,43,100,8,15,1999
130,Chenani,33.035542,75.285157,2036,786,171,"Police vehicle in Chenani, India",2121,265,100,8,15,1999
131,Cachar District,24.801749,92.944764,592,417,18,Pathimara Tea Estate Assistant Manager Rajat Banerjee,1813,1564,23,8,3,1999
132,Nalbari District,26.44174,91.393395,592,417,18,Two tea executives of the Fatemabad Tea Estate in Nalbari District,1813,1564,23,8,3,1999
133,Manu,23.997294,91.9906,592,876,296,"State government officials, including 12 rural body secretaries",1813,1564,62,9,6,1999
134,Doda,33.14575,75.548049,2036,86,73,Members,2121,533,1414,9,9,1999
135,Tangmang,34.05998,74.424533,2036,313,66,"Indian Border Police jeep in Tangmang, India",2121,674,1414,9,15,1999
136,Laudara,33.778175,76.576171,2036,313,66,"Indian Border Police in Laudara, India",2121,674,1414,9,16,1999
137,Deepkarhar,25.096074,85.313119,2036,876,296,"Poll officials in Deepkarhar, India",2121,265,1414,9,25,1999
138,Sursand District,26.644216,85.720507,1514,86,73,Supporter,1813,1564,8,9,25,1999
139,Pastun,33.992222,75.075833,200,876,315,Peerzada Abdul Hamid,2121,265,1414,9,26,1999
140,Unknown,23.940848,91.988153,1514,313,66,"Border security forces in Tripura, India",1813,1564,62,9,26,1999
141,Srinagar,34.083658,74.797368,1514,876,143,Srinagar State Government building,2121,43,2,9,29,1999
142,Unknown,26.275268,92.953375,2036,313,86,Indian Security Forces on patrol in Assam,2121,80,92,10,2,1999
143,Kolkata,22.572646,88.363895,2036,876,101,A school to be used as a polling station in Calcutta,2121,674,92,10,2,1999
144,Tinsukia District,27.491929,95.347833,2036,786,433,Central Reserve Police Force on duty in Upper Assam's Tinsukia district,2121,315,238,10,2,1999
145,Kachugaon,26.37931,90.025394,437,876,101,Polling Station Number 88 in Kachugaon,371,403,8,10,2,1999
146,Henglep,24.48338,93.52365,127,313,86,Indian Security Forces on patrol on poll duty in Henglep,371,403,92,10,2,1999
147,Nagaon District,26.236916,92.608133,200,876,315,"Kamal Nath, leader of Asom Gana Parishad (AGP)",1813,1564,238,10,2,1999
148,Kathalguri,27.315444,95.286216,2036,786,433,Central Reserve Police Force checking polling stations,2121,80,1414,10,2,1999
149,Tinsukia District,27.491929,95.347833,2036,786,171,Central Reserve Police Force on patrol in Upper Assam's Tinsukia district,2121,674,238,10,2,1999
150,Barpeta District,26.353393,91.104441,1514,876,101,Polling Station in Barpeta district,1813,180,238,10,3,1999
151,Dhalai District,23.919906,91.850304,1514,313,86,A convoy of Indian Security Forces in Dhalai district,1813,1564,7,10,3,1999
152,Unknown,24.663717,93.906269,1514,876,101,Polling station in Manipur,1813,1564,92,10,3,1999
153,Srinagar,34.083658,74.797368,2036,368,74,An unnamed passenger bus in downtown Srinagar,2121,674,92,10,7,1999
154,Jammu,32.726602,74.857026,2036,1538,78,Raghunath Bazaar in Jammu,2121,674,1414,10,23,1999
155,Srinagar,34.083658,74.797368,1514,313,77,Badamibagh Cantonment,1813,180,100,11,3,1999
156,Kandrori,32.184316,75.669148,2036,368,205,Puja Express Train 2404,2121,674,1414,11,11,1999
157,Kandrori,32.184316,75.669148,2036,368,205,"Puja Express train en route to Jaipur, India",2121,674,1414,11,13,1999
158,Panchavati,19.75148,75.713888,1514,1538,78,"Civilians at a bazaar in Panchavati, India",1813,180,7,11,14,1999
159,Loto,24.105324,83.818132,1514,102,221,People's War Group member and his family,243,181,24,11,18,1999
160,Bangdar,23.940848,91.988153,1514,786,171,"South Tripura police convoy in Bangdar, India",1813,180,62,11,22,1999
161,Srinagar,34.083658,74.797368,2036,876,315,"National Conference Party Headquarters in Srinagar, India",2121,674,1414,11,23,1999
162,Pattan district,34.16047,74.555116,2036,313,63,"Indian Army camp in Nehalpora Pattan, India",2121,80,1414,11,25,1999
163,Srinagar,34.083658,74.797368,2036,313,63,"Army compound in Haft Chinar District in Srinagar, India",2121,533,1414,11,27,1999
164,Bandipora,34.419807,74.63561,1514,876,315,"Mohammad Anwar Sheikh, the senior vice-president of Awami League",1813,1564,29,11,27,1999
165,Kohima district,25.6701,94.1077,200,876,296,"S.C. Jamir, chief minister of Nagaland",1813,1564,1,11,29,1999
166,Krishnanagar,23.401281,88.501557,1514,1538,78,"Civilians in a market in Krishnanagar, India",1813,1564,1,12,6,1999
167,North Tripura district,24.079714,92.263039,1514,1538,78,"Civilians at the market in Sipur, India",1813,1564,62,12,8,1999
168,Rajampet,14.186479,79.151326,2036,368,205,Rajampet Train Station in India,2121,315,61,12,12,1999
169,Patan,23.849325,72.126626,2036,786,164,"Police Station in Patan, India",2121,43,88,12,15,1999
170,Dungiwatcha,34.312414,74.345243,2036,313,66,"24 Rashtriya Rifles camp in Dengiwachi, India.",2121,533,100,12,15,1999
171,Kammarpally,18.835472,78.509532,2036,1538,447,"Civilians in the house of Gopikishan, a leader of the Telegu Desam Party",2121,674,61,12,16,1999
172,Nizamabad District,18.510022,78.295308,2036,876,315,"The home of Dasarath Reddy, Telugu Desam Party member",2121,674,61,12,20,1999
173,Anantnag,33.733336,75.148983,2036,876,296,"Deputy Commissioner's office in Anantnag, Kashmir.",2121,533,1414,12,22,1999
174,Jammu,32.726602,74.857026,2036,368,29,"Civilians in a bus terminal in Jammu, India",2121,674,1414,12,28,1999
175,Srinagar,34.083658,74.797368,1514,786,164,"Police Headquarters in Srinagar, India",2121,533,1414,12,29,1999
176,Udhampur,32.925224,75.135264,1514,786,164,The Central Reserve Police Force 68 battalion camp at Umorha Morh in Udhampur,1813,1564,100,1,1,2000
177,Kakotibari,27.091373,95.023955,2036,47,221,An Oil and Natural Gas Commission pipeline at Kakotibari,2121,61,238,1,1,2000
178,Srinagar,34.083658,74.797368,2036,1538,78,A vegetable market in Srinagar,2121,265,1414,1,3,2000
179,New Delhi,28.632381,77.220004,2036,368,205,A passenger train at the Old Delhi train station,2121,315,1414,1,6,2000
180,Unknown,16.690933,79.567945,2036,876,315,"G. Sukhender Reddy, Telugu Desam Party Member of Parliament",2121,674,61,1,7,2000
181,Kaghaznagar,19.351868,79.481219,2036,786,164,The District Superintendent of Police office,2121,674,61,1,11,2000
182,Khanabal,33.741093,75.129728,1514,313,63,Rashtriya Rifles headquarters in Khannabal,1813,1564,100,1,12,2000
183,Budgam District,34.021244,74.722282,2036,47,20,Power transmission towers in Kashmir,2121,674,100,1,16,2000
184,Jirania,23.826754,91.431903,592,1538,447,Residents in Tripura State,1813,1564,62,1,16,2000
185,Unknown,26.275268,92.953375,2036,368,205,Goods train in Assam,2121,265,1414,1,19,2000
186,Srinagar,34.064508,74.794461,1514,313,63,Batmaloo Indian Army camp in Srinagar,2121,533,92,1,24,2000
187,Doda,33.14575,75.548049,200,876,315,"Muzaffar Hussain Beig, a congress leader",2121,533,1414,1,26,2000
188,Jammu,32.726602,74.857026,2036,876,315,"Muslim legislator from the National Conference party, Javed Shah",2121,43,1414,1,27,2000
189,Jammu,32.726602,74.857026,2036,1538,447,Residents of Jammu,2121,674,1414,1,28,2000
190,Unknown,23.940848,91.988153,592,1538,55,Civilians traveling in a jeep along the Udaipur-Tainani road in Tripura,1813,1564,2,1,31,2000
191,Atharobola,23.610792,91.445885,592,1538,55,Civilians traveling in a jeep at Atharobolla in Tripura,1813,1564,2,1,31,2000
192,Paharpur,23.485379,91.778227,592,1538,447,Civilians on lorries at Paharpur,371,403,62,1,31,2000
193,Gaichta-Dudsunbala,33.778175,76.576171,1514,313,77,"Indian Army soldiers in Gaichta-Dudsunbala, India",1813,1564,1414,2,8,2000
194,Bhaira,23.055626,88.252202,2036,368,205,"Sealdah Express Train in Baira, near Calcutta, India",2121,674,1414,2,10,2000
195,Souch Palpora,34.135101,74.495056,1514,786,433,"Civilian special police, including Ghulam Mohammed Reshi and his daughter, who were aiding counter-insurgency efforts",1813,1564,1,2,10,2000
196,Sumbal,34.230705,74.647311,200,313,86,"Faiyaz Ahmad, commander of a counter-insurgency unit",2121,315,88,2,17,2000
197,Kahlil,33.963889,75.15,2036,786,433,Police Officers in Kashmir,2121,265,92,2,18,2000
198,Bijbehara,33.792909,75.103907,2036,313,66,Border Security Force (BSF) Members in Kashmir,2121,265,92,2,18,2000
199,Tarigonda,13.693315,78.628397,1514,786,164,Police Outpost in Tarakunda,2121,315,61,2,18,2000
200,Bustar,22.973423,78.656894,2036,786,171,Police on Patrol in Bustar,2121,265,61,2,20,2000
201,Madhepura,25.92869,86.790976,33,876,296,"Sharad Yadav, Indian Aviation Minister",243,25,1,2,20,2000
202,Bishramganj,23.843841,91.330052,2036,1538,447,Civilians in Bishram Ganj,382,46,62,2,20,2000
203,Manipur,25.045856,84.0762,1514,313,86,Troops Guarding Polling Places in Manipur,1813,1564,92,2,22,2000
204,New Delhi,28.632381,77.220004,2036,1538,78,"Civilians at the Kailash Guest House in New Delhi, India",2121,674,2,2,27,2000
205,Bahajan,29.786285,79.314867,2036,876,296,"Nagen Sharma, Minister of the Assam Forest and Public Works Department",2121,674,238,2,27,2000
206,Tarkhan Majra,30.615375,76.362281,2036,1538,55,Civilians on board a Delhi-bound private bus,2121,61,1,3,3,2000
207,Kachnar,25.96977,84.359717,200,313,66,"Central paramilitary forces soldiers in Kachnara, India",1813,180,61,3,4,2000
208,Laxmipur,26.719955,84.463206,1514,1538,447,"Civilians in Laxmipur Diara, India",1813,180,34,3,4,2000
209,Badampura,33.778175,76.576171,1514,313,63,"Indian Army Post at Badampura, India",1813,180,1414,3,5,2000
210,Ghatkesar,17.45252,78.683477,200,876,296,E. Madhav Reddy,2121,265,34,3,7,2000
211,Majuli Bargora,27.516807,95.6146,1514,786,433,Majuli Bargora Police Officers,1813,180,238,3,7,2000
212,Bardiha,25.802255,85.556063,2036,313,77,"Garhwa District Soldiers in Bardhia, India",2121,265,61,3,11,2000
213,Thanamandi,33.538588,74.369286,1514,313,63,Thanna Mandi Army Post in India,1813,180,100,3,14,2000
214,New Delhi,28.632381,77.220004,2036,1538,78,Civilians shopping in the Sadar Bazar district in New Delhi,2121,315,1414,3,16,2000
215,Srinagar,34.083658,74.797368,2036,25,3,Srinagar Television Center,2121,533,1414,3,18,2000
216,Chadisinghpoora,33.778175,76.576171,1514,1538,447,"Civilians in Chadisinghpoora, India",1813,180,100,3,21,2000
217,Cuddalore,11.756356,79.763486,2036,368,205,A railway track near Cuddalore,2121,674,2,3,0,2000
218,Kot Budha,31.866771,75.339792,1514,1538,186,"Members of the Fateh Mohd Gujjar family in Kot Budhan, India",1813,1564,1414,3,24,2000
219,Hyderabad,17.376812,78.487812,2036,876,12,"Civil Court in Hyderabad, India",2121,674,1414,4,5,2000
220,Unknown,23.940848,91.988153,592,876,315,Family members of Left Front candidates,371,403,62,4,9,2000
221,Unknown,23.940848,91.988153,592,876,315,Family members of Left Front candidates,371,403,62,4,9,2000
222,Jampui,23.934847,92.277519,592,876,315,Family members of Left Front candidates,371,403,62,4,9,2000
223,Unknown,23.940848,91.988153,592,876,315,Family members of Left Front candidates,371,403,62,4,9,2000
224,Unknown,23.940848,91.988153,592,876,315,Family members of Left Front candidates,1813,1564,62,4,9,2000
225,Belbari,23.790546,91.469337,592,876,315,Family members of Left Front candidates,371,403,62,4,9,2000
226,Rawalpora,34.025935,74.797458,2036,313,86,"Convoy of Army vehicles carrying army personnel at Rawalpora bypass on the outskirts of Srinagar, Jammu and Kashmir, India",2121,75,1414,4,12,2000
227,Srinagar,34.083658,74.797368,2036,25,3,Radio Kashmir Srinagar (RKS) building in India,2121,674,1414,4,15,2000
228,Sopore,34.279614,74.450684,2036,313,63,"Indian Army? 15 Corps headquarters in Badami Bagh, India",2121,75,18,4,19,2000
229,Sopore,34.286763,74.462401,2036,313,86,"Army convoy passing through Sopore, India",2121,533,1414,4,19,2000
230,Laxmipur,23.955541,92.218748,1514,1538,447,Begali villagers in Laxmipur village,1813,180,62,4,19,2000
231,Khoiphuta,26.257281,93.012702,1514,1538,266,Migrant laborers in Karbi territory,1813,1564,3,4,24,2000
232,Chak Mohammad Yar,32.587222,74.76,2036,1538,447,"Civilians in Chak Mohd Yar, India",2121,61,1414,4,26,2000
233,Sher Bagh,34.010186,74.4848,2036,786,9,"Police checkpoint in Sher Bagh, India",2121,315,1414,4,28,2000
234,Anantnag,33.733336,75.148983,2036,786,171,"Police patrol in Anantnag, India",2121,533,1414,4,28,2000
235,Mohanpur,23.9654,91.37104,1514,1538,66,Bengali settlers,1813,1564,62,5,1,2000
236,Srinagar,34.083658,74.797368,2036,876,296,Srinagar Secretariat,2121,75,1414,5,7,2000
237,Mumbai,19.075984,72.877656,437,66,8,Ashramshala girls hostel,20,403,5,5,8,2000
238,Mandi Pora,33.561228,75.205876,200,876,315,Ghulam Hassan Bhat,2121,315,88,5,15,2000
239,Mandi Pora,33.561228,75.205876,200,876,315,Mr. Ghulam Hassan Bhat,2121,80,88,5,15,2000
240,Srinagar,34.083658,74.797368,2036,876,143,Kashmir State Assembly building in Srinagar,2121,43,1414,5,19,2000
241,Machilipatnam,16.182826,81.133869,2036,66,35,Indiscriminate Christians at an Evangelical Gathering in Machilipatnam,2121,674,1414,5,21,2000
242,Baghber,23.499531,91.238136,1514,1538,447,Indiscriminate Civilians in the Village of Baghber,1813,1564,62,5,21,2000
243,Imphal,24.764167,93.899444,2036,876,1,Prime Minister Atal Behari Vajpayee,2121,674,33,5,20,2000
244,Srinagar,34.083658,74.797368,2036,876,296,Civil Secretariat Building in Srinagar,2121,533,1414,5,22,2000
245,Srinagar,34.083658,74.797368,2036,12,8,Indiscriminate Civilians in a Tourist Area of Srinagar,2121,674,1414,5,28,2000
246,Srinagar,34.083658,74.797368,2036,786,433,A Police Party in Srinagar,2121,533,1414,5,29,2000
247,Shopian,33.717003,74.836092,2036,313,86,"Major M V Ramnee and Three of his men, on Patrol in Shopian",2121,533,1414,5,29,2000
248,Magam,34.091914,74.589914,200,876,315,"Moulvi Iftikhar Ansari, a Senior Legislator of the Opposition Congress Party",2121,533,1414,6,2,2000
249,Borkhola,24.929947,92.745496,2036,313,77,Indian soldiers,2121,80,106,6,3,2000
250,Srinagar,34.069935,74.793683,1514,786,433,Policemen in Batmaloo,1813,1564,18,6,4,2000
251,Srinagar,34.064209,74.807577,1514,786,433,Policemen in Wazirbagh,1813,1564,18,6,4,2000
252,Srinagar,34.078661,74.765892,1514,1538,447,Indiscriminate Civilians in Bemina,1813,1564,1414,6,4,2000
253,Srinagar,34.083658,74.797368,2036,786,164,A Police Headquarters in Srinagar,2121,533,1414,6,7,2000
254,Vasco da Gama,15.386033,73.84404,2036,66,35,St Andrews's Church in Vasco,2121,674,92,6,8,2000
255,Tadepalligudem,16.814087,81.526761,2036,66,35,RCM Church in Tadepalliguden,2121,674,92,6,8,2000
256,Ongole,15.505646,80.047686,2036,66,35,Jewitt Memorial Baptist Church in Ongole,2121,674,92,6,8,2000
257,Wadi,17.062432,76.981588,2036,66,35,St Anne's Roman Catholic Church in Wadi,2121,674,92,6,8,2000
258,Jalandhar,31.326015,75.576183,1514,66,19,"Ashish, an Indian Christian Priest",243,181,1414,6,11,2000
259,Asarfi,25.096074,85.313119,1514,1538,266,Landlords of the upper caste,1813,1564,92,6,12,2000
260,Kunzer,34.084253,74.504122,200,876,315,"Ghulam Muhammad Reshi, a Block President of the National Conference Party",1813,180,1414,6,13,2000
261,Lengdenpokse,24.663717,93.906269,1514,1538,66,Indian civilians riding in a vehicle,1813,1564,1414,6,25,2000
262,Guntur,16.301849,80.436592,2036,66,35,Markas Mosque in Guntur,2121,674,1414,6,25,2000
263,Srinagar,34.083658,74.797368,2036,876,296,"Civil Secretariat in Kashmir, Chief Minister Farooq Abdullah",2121,533,1414,6,28,2000
264,Kailasahar,24.318984,91.997804,592,1538,266,"Bipin Behari Tandon, the manager of four tea gardens",1813,1564,62,7,2,2000
265,Hubli,15.364708,75.123955,2036,66,35,St. Lutheran Protestant Church in India,2121,674,1414,7,8,2000
266,Jalpaiguri,26.524343,88.719706,127,130,16,Two headmasters in West Bengal,371,403,5,8,7,2000
267,Ladakh,34.0,78.0,1514,66,19,Monks at the Rungdum monastery,1813,1564,1414,7,12,2000
268,Hasker,24.123729,83.834044,1514,1538,447,Brahmins in Hasker,1813,1564,61,7,13,2000
269,Bongaigaon,26.479468,90.556866,2036,417,23,An oil refinery in western Assam,2121,43,106,7,13,2000
270,Karbi Anglong district,26.001459,93.499242,1514,1538,25,Civilians and property in the village of Rongkuri,243,181,3,7,16,2000
271,Karbi Anglong district,25.960734,93.497468,1514,1538,25,Civilians and property in the village of Diklam,243,181,3,7,16,2000
272,Sarupathar,26.194196,93.866902,1514,1538,447,Villagers from Serapathar village in Assam state,243,181,1414,7,19,2000
273,Jalandhar,31.326015,75.576183,2036,368,74,A Bus in Jullundur,2121,674,1414,7,24,2000
274,Sopore,34.286763,74.462401,200,876,315,"Ghulam Jeelani Wani, the president of the Jammu and Kashmir Democratic Freedom Party and general secretary of the Baramulla Bar Association",1813,1564,8,7,24,2000
275,Unknown,26.275268,92.953375,2036,368,205,Freight train,2121,674,106,7,30,2000
276,Gulmarg,34.047272,74.385853,2036,12,8,Hindu pilgrims in Gulmarg,2121,533,1414,7,30,2000
277,Unknown,26.275268,92.953375,2036,368,205,Passenger Train in Assam,2121,674,1414,7,30,2000
278,Gajanur,11.766133,77.004724,592,1538,266,"Rajkumar, a famous actor; his son-in-law; and two civilians",1813,11,2,7,30,2000
279,Srinagar,34.083658,74.797368,2036,1538,16,Civilians in the vicinity of a garbage can near Dal Lake in Srinagar,2121,533,88,8,12,2000
280,Pahalgam,34.016075,75.31498,1514,1538,48,"Civilians traveling to a shrine close to Pahalgam base camp in Kashmir, India",1813,180,1414,8,1,2000
281,Srinagar,34.071928,74.814889,2036,313,86,"Indian Security Forces in the Regal Chowk area in Srinagar, India",2121,75,88,8,10,2000
282,Kud,33.079037,75.29384,2036,313,66,Members of the Border Security Force (BSF) paramilitary traveling between Jammu and Srinagar,2121,265,88,8,13,2000
283,Jammu,32.726602,74.857026,2036,313,66,Members of the Border Security Force (BSF) paramilitary,2121,265,88,8,13,2000
284,Srinagar,34.083658,74.797368,2036,1538,78,Civilians in or near the pleasure gardens,2121,674,88,8,13,2000
285,Srinagar,34.083658,74.797368,2036,1538,447,Civilians and structures on Boulevard Road,2121,674,88,8,13,2000
286,Razabad,25.892778,81.043889,2036,368,205,"Muzaffarpur to Ahmedabad train in Rauzabad, India",2121,674,1414,8,14,2000
287,New Delhi,28.632381,77.220004,2036,1538,19,Civilians celebrating Independence Day in India,2121,315,88,8,10,2000
288,Bijbehara,33.792909,75.103907,2036,786,433,Police officers in Bijbehara town,2121,533,29,8,16,2000
289,Kot Dhara,33.393333,74.3775,1514,1538,48,Hindu civilians in Koddara village,1813,180,12,8,17,2000
290,Ind,33.2175,75.031667,1514,1538,48,"Members of the Mir Chand family, a Hindu family",1813,180,12,8,19,2000
291,Imphal,24.817011,93.936844,1514,25,21,"T.H. Brajamani Singh, the editor of Manipur News",1813,1564,8,8,20,2000
292,Gargaon,26.926951,94.74266,200,876,315,"Mohini Basumatary, a member of the Bodo Legislative Assembly",1813,1564,106,8,21,2000
293,Bogribari,26.199283,90.127707,1514,1538,447,Civilian woodcutters collecting firewood in Assam,1813,180,106,8,22,2000
294,Imphal,24.721314,93.939385,2036,25,21,"Lamyanba, a daily newspaper",2121,674,29,8,26,2000
295,Jirania,23.826754,91.431903,1514,66,19,Shanti Tripura and his companion,1813,1564,62,8,27,2000
296,Sangrama,34.24437,74.449611,200,66,8,"Maulvi Iftikhar Hussain Ansari, Shi'a leader",2121,265,1414,9,1,2000
297,Leh district,34.152586,77.577053,1514,313,77,Indian Army,1813,1564,88,9,1,2000
298,Anantang district,33.731125,75.148701,1514,786,171,Indian Army Patrol at Utrosou Village,1813,1564,1414,9,1,2000
299,Kupwara District,34.526179,74.254614,1514,876,315,"The family of Rafiq Nelo, a member of the Ikhwan",1813,1564,1414,9,8,2000
300,Dumariyan,25.630775,84.725679,1514,86,73,Supporters,382,46,2,9,9,2000
301,Budgam District,34.021244,74.722282,1514,313,63,"34 Rashtriya Rifles Camp, Beerwa, Budgam District, Jammu and Kashmir State",1813,1564,100,9,12,2000
302,Karbi Anglong district,25.960734,93.497468,1514,786,171,"Police convoy carrying a United Peoples Democratic Solidarity (UPDS) organization prisoner, near Borlangpha town",1813,180,50,9,13,2000
303,Narkopi,23.381934,84.963592,1514,1538,48,Muslim landowners and tribal members,1813,1564,24,9,13,2000
304,Srinagar,34.083658,74.797368,592,876,315,"Ilyas Ahmad Pir, local BJP leader in the Srinagar area",1813,1564,1414,9,14,2000
305,Bandipora,34.419539,74.63827,1514,786,164,Jammu and Kashmir State Police Guard room at Bandipore,1813,180,1414,9,15,2000
306,Surankot district,33.63987,74.263416,2036,313,86,"Indian Army patrol at Fazlabad village, Surankote District, Jammu and Kashmir State",2121,674,1414,9,15,2000
307,Thanamandi,33.538588,74.369286,1514,786,164,Jammu and Kashmir State Police Station at Thanna Mandi town,2121,43,1414,9,15,2000
308,Srinagar,34.083658,74.797368,2036,786,171,Police Vehicle,2121,533,1414,9,18,2000
309,Dhalai district,23.846698,91.909924,2036,1538,447,Tribal members in Tripura state,2121,674,3,9,18,2000
310,Pattapani,33.778175,76.576171,2036,1538,447,Citizens of Kashmir,2121,61,1414,9,23,2000
311,Rajouri,33.371715,74.315313,2036,313,63,Citizens of Rajouri,2121,43,1414,9,24,2000
312,Thakur Bigha,25.093611,84.473889,1514,1538,186,Yadav Family,1813,1564,8,9,30,2000
313,Poonch District,33.767001,74.092404,1514,1538,186,Family of Gulzar Hussain,1813,1564,1414,9,30,2000
314,Srinagar,34.072251,74.813614,2036,786,171,A security patrol in Srinagar,2121,533,29,10,11,2000
315,Bhojpur,25.468817,84.519985,1514,1538,186,"Govind Mahato, Arvind Kumar, Satyendra Yadav, Ranjit Sharma and Bipin Kumar; lower caste Hindus in Bihar state",1813,1564,1,10,14,2000
316,Anantnag,33.741701,75.162564,2036,313,63,Indian Army base in Anchidora,2121,533,1414,10,18,2000
317,Sopore,34.279614,74.450684,2036,313,77,Indian Soldiers Traveling in Sopore,2121,674,1414,10,18,2000
318,Srinagar,34.089336,74.796608,2036,313,63,Indian Army Bunker in the Nawab Bazar Locality in Srinagar,2121,533,1414,10,18,2000
319,Udhampur district,32.914059,75.142965,2036,313,63,A Border Security Force Post in the Lapri Village,2121,75,1414,10,21,2000
320,Tinsukia,27.489193,95.355318,1514,1538,78,Unknown,1813,180,238,10,23,2000
321,Naholia,26.188302,92.951527,1514,1538,78,Unknown,1813,180,238,10,23,2000
322,Nagpur,21.1458,79.088155,1514,66,35,Believers Church in Nagpur,1813,180,1414,10,23,2000
323,Dhalai district,23.851951,91.907002,2036,1538,55,Civilians in a jeep in Tripura,2121,674,2,10,24,2000
324,Bathinda,30.210994,74.945475,2036,368,205,A passenger train in Punjab state,2121,315,1414,10,26,2000
325,Nalbari,26.444112,91.44136,1514,1538,48,Hindu devotees leaving a temple in Nalbari town,1813,1564,238,10,27,2000
326,Surankot,33.639869,74.263416,437,786,164,Paramilitary camp in Surankote in Poonch district,1813,1564,100,10,27,2000
327,Imphal,24.817011,93.936844,1514,313,66,Members of the Assam Rifles,1813,1564,1414,11,2,2000
328,Mazhom,34.102222,74.621389,2036,1538,447,People along the Srinagar-Gulmarg road,2121,265,1414,11,3,2000
329,Barpeta district,26.330303,91.004374,1514,1538,266,Laborers in Sukrungbari village,1813,1564,106,11,8,2000
330,North Tripura district,24.079714,92.263039,2036,1538,447,Tribal members in Tripura state,2121,674,2,11,15,2000
331,Barpeta district,26.353393,91.104441,1514,417,51,A tea executive from an Assam tea company,1813,1564,106,11,16,2000
332,Simuluguri,26.921654,94.756588,1514,1538,447,Family members and workers of a business man in Assam state,1813,180,238,11,17,2000
333,Agartala district,23.831457,91.286778,1514,1538,66,Bengali villagers in Boroholdi village,1813,1564,62,11,19,2000
334,Jammu,32.726602,74.857026,1514,1538,55,Civilian Truck drivers,1813,1564,1414,11,21,2000
335,Kishtwar,33.313294,75.763367,592,1538,48,Hindu Civilians,1813,1564,100,11,24,2000
336,Lungsung,26.636002,90.337053,1514,1538,447,Residents of Kokrajha village,1813,1564,106,11,24,2000
337,Jagara,26.362324,91.383042,1514,1538,447,Citizens of Jagra village,1813,1564,7,11,25,2000
338,Kumrighata,26.44295,91.441519,1514,1538,447,Citizens of Kumrighata village,1813,1564,7,11,25,2000
339,Bongaigaon,26.479468,90.556866,1514,417,221,Hindu civilians at a railway laborers' colony in Bongaigaon,1813,180,238,11,30,2000
340,Pattan,34.16047,74.555116,2036,786,171,"Security Vehicle-Patton, India",2121,533,1414,12,1,2000
341,Srinagar,34.071901,74.804964,2036,786,171,"Security Vehicle-Jehangir Chowk, India",2121,533,1414,12,1,2000
342,Srinagar,34.071901,74.804964,2036,1538,447,"Civilians in Jehangir Chowk, India",2121,75,1414,12,1,2000
343,Srinagar,34.071901,74.804964,2036,1538,447,"Civilians in Jehangir Chowk, India",2121,75,1414,12,1,2000
344,Sarju,33.778175,76.576171,1514,876,296,"Jallanmarh-Sarjao Village Defense Committee member, Gyan Singh's, residence",2121,533,1414,12,1,2000
345,Sugnu,24.293794,93.877609,592,66,19,Rev Fr Jacob Chittinapilly,1813,1564,8,12,2,2000
346,Qazigund,33.592697,75.165839,1514,1538,447,Civilians on a passenger bus,1813,1564,1,12,3,2000
347,Tinsukia district,27.491929,95.347833,1514,417,221,"Civilians in Tinsukia, Assam",1813,180,238,12,7,2000
348,Lalpora,34.542597,74.462821,2036,786,433,"Special Police Officer, Abdul Qadoos S/o Munna R/o Lalpora, Lolab",2121,43,1414,12,10,2000
349,New Delhi,28.632381,77.220004,2036,786,171,Border Security Force vehicle in the Qamarwari outskirts of New Delhi,2121,265,18,12,11,2000
350,Arwani,33.788992,75.05077,2036,876,296,"Ali Mohammad Sagar, the Public Works Minister",2121,533,29,12,13,2000
351,Brahmchak,25.207514,84.974297,1514,86,73,Members,1813,1564,61,12,17,2000
352,Wokha district,26.091035,94.258974,2036,1538,9,Students traveling on a bus in Nagaland,2121,61,1414,12,18,2000
353,New Delhi,28.632381,77.220004,437,313,63,"The ""Red Fort""-Indian Army Post in New Delhi, India",1813,180,100,12,22,2000
354,Unknown,33.778175,76.576171,2036,313,63,"Indian Army headquarters in Kashmir, India",2121,75,8,12,25,2000
355,Keshpur,22.556913,87.461815,1514,876,315,Trinamool Congress,1813,1564,4,1,3,2001
356,Poonch,33.767001,74.092404,1514,313,77,Indian soldiers stationed in Poonch,1813,180,88,1,5,2001
357,Srinagar,34.083658,74.797368,2036,313,66,Indian paramilitary in Kashmir,2121,533,1414,1,5,2001
358,Dhalai district,23.851951,91.907002,592,368,205,Indian railway workers,1813,1564,62,1,7,2001
359,Sopore,34.286763,74.462401,2036,313,18,A security vehicle and troops in Sopore,2121,533,4,1,7,2001
360,Dhalai district,23.846698,91.909924,592,417,142,Indian railway workers,1813,1564,62,1,7,2001
361,Diphu,25.846914,93.429764,1514,1538,186,Benson Ingti and his family,1813,1564,7,1,7,2001
362,Srinagar,34.083658,74.797368,2036,89,67,Central Telegraph Office in Srinagar,2121,674,1414,1,9,2001
363,Srinagar,34.083658,74.797368,200,876,315,Shahid ul Islam,1813,1564,1414,1,9,2001
364,Srinagar,34.083658,74.797368,200,876,296,Farooq Abdullah,2121,533,1414,1,14,2001
365,Rosera,25.756786,86.027462,1514,86,73,Meeting,1813,180,1414,1,15,2001
366,Srinagar,34.002039,74.762446,2036,3,1,Srinagar airport,2121,533,100,1,16,2001
367,Srinagar,34.083658,74.797368,2036,368,221,Kashmir public transportation in Srinagar,2121,265,1414,1,21,2001
368,Jammu,32.726602,74.857026,2036,876,315,Sher-e-Kashmir Bhawan,2121,674,92,1,21,2001
369,Bishnupur,26.674331,91.388518,1514,1538,266,Woodcutters living in Bishnupur-Sankuchi village,1813,180,238,1,22,2001
370,Diphu,25.846914,93.429764,2036,1538,447,Civilians living in Diphu,2121,674,29,1,24,2001
371,Rishikesh,30.106756,78.298845,2036,368,74,"A UP Road Transport Corporation bus travelling from Delhi to Rishikesh, India",2121,674,1414,1,26,2001
372,Srinagar,34.054023,74.817759,1514,1538,48,Sikh civilians in the vicinity of Mahjoor Nagar,1813,1564,4,2,3,2001
373,Saloha,33.029167,75.080556,1514,1538,447,"Three members of the Village Defense Committee, their relatives, and their houses",2121,533,1414,2,9,2001
374,Srinagar,34.083658,74.797368,1514,786,164,Police personnel at a high-security police facility in Srinagar,2121,533,100,2,9,2001
375,Anantnag,33.733336,75.148983,1514,876,296,"P.L. Handoo, the state Law Minister of Jammu and Kashmir",1813,1564,29,2,10,2001
376,Charar-i-Sharif,33.8629,74.766298,2036,876,315,"Ali Mohammad Bhat, an official from National Conference",2121,674,1414,2,14,2001
377,Lalpora,34.542597,74.462821,2036,1538,16,Children in a playground,2121,674,1414,2,19,2001
378,Sodal,34.370951,74.214998,1514,876,315,"Wali Mohammad Khan, a National Conference activist",1813,1564,29,2,20,2001
379,Agartala,23.831862,91.287127,200,876,315,"Madhusudan Saha, an opposition MLA on Tripura Congress",1813,1564,8,2,20,2001
380,Tarzoo,34.270544,74.497108,2036,1538,266,"Abdul Ghani Bhat, a Kashmiri separatist leader and the chairman of the All Party Hurriyat Conference",2121,533,1414,2,22,2001
381,Kishtwar,33.313294,75.763367,1514,1538,447,Two civilians at Kishtwar,1813,1564,29,2,23,2001
382,Bagdam district,34.011779,74.774668,127,876,315,"Noor Mohammad Shah, the Deputy Block President for the National Conference",371,403,29,2,26,2001
383,Manjapu,33.778175,76.576171,2036,786,433,Jammu and Kashmir Police and Indian Reserve Police,2121,533,1414,3,2,2001
384,Bampu,23.561326,91.634788,1514,313,66,Central Reserve Police Force personnel near the town of Bampu,1813,1564,62,3,3,2001
385,Dangarpora,34.142813,74.50751,1514,876,315,"Ghulam Mohammad Bhat, a National Conference activist",1813,1564,29,3,1,2001
386,Surankot,33.639869,74.263416,1514,313,63,Soldiers in an army camp at Surankot,1813,1564,1414,3,5,2001
387,Fulkumari,26.516287,90.156602,1514,1538,186,Ishan Mushary; Susanta Mushary; Nepal Basumatri; Ranjit Mushary; Sachin Rava,1813,1564,29,3,6,2001
388,Veelu,33.778175,76.576171,2036,313,18,Indian army in a vehicle in Veelu,2121,265,1414,3,13,2001
389,Imphal,24.817011,93.936844,2036,1538,78,Civilians in a market in the town of Imphal,2121,674,9,3,13,2001
390,Baramulla district,34.205618,74.35399,2036,368,29,Bus stand,2121,533,29,3,13,2001
391,Kulipora,33.778175,76.576171,200,876,315,Ghulam Mohammad Ganai,1813,1564,29,3,17,2001
392,Ramgaon,26.613806,91.740436,1514,1538,15,Eleven Adivasi tribal farmers,1813,1564,106,3,18,2001
393,Sonpah,34.010443,74.603442,200,876,315,Safdar Malik,1813,1564,29,3,22,2011
394,Manu,23.997294,91.9906,127,1538,55,Civilian vehicle convoy outside Manu,371,403,62,3,24,2001
395,Srinagar,34.083658,74.797368,1514,786,433,88 Battalion of the Central Reserve Police Force,1813,1564,100,3,26,2001
396,Tendongyan,24.909554,93.875824,2036,786,171,15th Jat Regiment soldiers patrolling Ichum Lairembi,2121,674,1414,3,29,2001
397,Watargam,34.319167,74.373056,1514,313,86,"An Indian convoy on a highway outside of Srinagar, Jammu & Kashmir, India",1813,1564,100,4,3,2001
398,Kandi,32.993612,74.681027,1514,876,315,Abdul Salam Magraya,1813,1564,29,4,3,2001
399,Baramulla district,34.205141,74.349494,2036,1538,447,"Indiscriminate civilians in Dalina, Kashmir",2121,674,1414,4,4,2001
400,Unknown,33.778175,76.576171,2036,786,164,Police trainees at the Doda police camp in Kashmir,2121,533,1414,4,5,2001
401,Baramulla,34.205141,74.349494,2036,786,433,"Security guards at the Bandipura Bazaar in Srinagar, Kashmir",2121,533,1414,4,6,2001
402,New Delhi,28.632381,77.220004,2036,876,143,"D.S.M. Sundaram, the Personal Assistant for Vikhe Patil, the Minister of Finance",2121,61,12,4,10,2001
403,Srinagar,34.069832,74.809039,1514,313,86,"Paramilitary units at a security bunker at Lal Chowk in Srinagar, Kashmir",1813,180,1414,4,14,2001
404,Belthu,24.7458,84.923213,1514,1538,447,"Indiscriminate civilians in Beltu, India",1813,1564,24,4,14,2001
405,Madhopur,26.084783,85.392405,2036,1538,186,Shiv Nath Sahni,2121,674,1414,4,19,2001
406,East Godavari district,17.34134,82.017161,2036,786,433,"Police forces in in Andhra Pradesh, India",2121,265,61,4,20,2001
407,Unknown,33.778175,76.576171,2036,1538,189,Separatist members at the Hurryat Conference in Kashmir,2121,533,1414,4,23,2001
408,Darbhanga district,26.111868,85.896004,2036,876,101,Nagma village's elections,2121,674,1414,4,23,2001
409,Sitamarhi,26.590179,85.494267,2036,876,101,Sitamarhi district's center for polling,2121,674,1414,4,23,2001
410,Sopore,34.286763,74.462401,1514,313,63,"Indiscriminate soldiers at the Rashtriya Rifles camp outside of Sopore, Kashmir",1813,1564,1414,4,24,2001
411,Kantakobrapara,23.940848,91.988153,1514,313,66,"Tripura State Rifles in West Tripura, India",1813,1564,62,4,26,2001
412,Bijbehara,33.792909,75.103907,2036,1538,78,"Indiscriminate shopper at the Goriwa Bazaar in Bijbehara, India",2121,533,1414,4,26,2001
413,Budgam District,34.021244,74.722282,2036,786,171,Central Police Reserve Force driving 18 miles from Srinagar city,2121,265,1414,4,29,2001
414,Muzaffarpur,26.120888,85.36472,2036,66,35,"Cathedral in Muzaffarpur, India",2121,674,1414,5,5,2001
415,Magam,34.091914,74.589914,2036,313,63,Indian Military camp in the Jammu and Kashmir,2121,11,100,5,9,2001
416,New Delhi,28.632381,77.220004,2036,313,63,Indian Military Headquarters in New Delhi,2121,674,88,5,9,2001
417,Srinagar,34.083658,74.797368,2036,1538,189,Maulvi Mohammad Abdullah Tahri,2121,533,1,5,10,2001
418,Sajjar,33.778175,76.576171,1514,1538,66,Indian shepherds,243,181,100,5,10,2001
419,Mahadev,34.151937,74.98717,2036,786,171,Vehicle,2121,265,88,5,25,2001
420,Varanasi,25.306049,83.010144,2036,66,19,"Mahant Nritya Gopal Das, Vishwa Hindu Parishad leader",2121,674,1414,5,28,2001
421,Sangrama,34.24437,74.449611,2036,313,77,An Indian Army officer near Sangrama,2121,674,88,5,28,2001
422,Prechu,33.778175,76.576171,2036,876,296,"B.A. Nengroo, Junior Minister for Food and Supplies",2121,533,1414,5,28,2001
423,Srinagar,34.083658,74.797368,200,130,88,Women's College in Srinagar,2121,43,88,5,29,2001
424,Muzaffarnagar,33.778175,76.576171,2036,66,19,"Father Vinay in Muzaffarnagar, India",2121,533,1414,5,29,2001
425,Kupwara,34.526179,74.254614,2036,313,86,Security patrol in the border district of Kupwara in north Kashmir,2121,533,1414,6,2,2001
426,Kokrajhar district,26.398022,90.269415,1514,1538,266,"Woodcutters in the remote Lungsung Reserve Forest, near Runikhata outpost, in lower Assam's Kokrajhar district",1813,180,106,6,3,2001
427,Srinagar,34.08753,74.792438,1514,786,433,"Two police constables in Srinagar, Ali Muhammad and Ghulam Rasool",1813,11,100,6,6,2001
428,Dhupdhara,25.959004,91.054839,1514,786,164,Central Reserve Police Force camp and nearby Dhodpadara police station in Goalpara,1813,180,238,6,7,2001
429,Budgam,34.021244,74.722282,2036,66,35,"The premises of Charar-i-Sharif mosque in Budgam and highly revered Sufi saint of Kashmir, Sheikh Nooruddin Noorani",2121,533,1414,6,8,2001
430,Karimnagar,18.438555,79.128841,1514,102,221,Ten members of the People's War Group suspected of being spies,1813,1564,61,6,15,2001
431,Jammu,32.706548,74.880683,2036,368,205,"Jammu railway station and customers, including soldiers and pilgrims",2121,61,12,6,25,2001
432,Doda,33.142224,75.547321,200,876,315,The house of Bharatiya Janata Party (BJP) activist Om Prakash with guests gathered for a pre-marriage ceremony,1813,1564,1414,6,26,2001
433,Pathan Mohalla,33.857835,75.049798,200,876,315,Mohd Sarwar Khan,1813,1564,1414,6,27,2001
434,Sheshnag,34.100327,75.506758,1514,1538,186,Amarnath Pilgrims camping at Sheshnag,1813,1564,3,7,21,2001
435,Srinagar,34.083658,74.797368,2036,1538,447,Civilians in the city of Srinagar,2121,674,18,7,21,2001
436,Jhiri,32.827778,74.733333,1514,1538,48,Hindu civilians living in the village of Chirji,1813,1564,1414,7,22,2001
437,Eturunagaram,18.339941,80.430226,1514,786,164,A police station at Eturunagaram,1813,1564,61,7,29,2001
438,Tripura,25.467031,91.366216,437,47,20,"Power Generating Unit in Tripura, Meghalaya State, India",1813,1564,1414,8,0,2001
439,Budgam,34.021244,74.722282,1514,1538,80,Civilian homes of Habibullah Rather and Mohammad Amin Lone,1813,1564,1414,8,1,2001
440,Anantnag,33.733336,75.148983,200,876,296,"Indian government employee in Anantnag district, Jammu and Kashmir, India",1813,1564,1414,8,1,2001
441,Baramulla district,34.205141,74.349494,1514,1538,266,"Shopkeeper in Jammu and Kashmir, India",1813,1564,1414,8,1,2001
442,Kokrajhar district,26.401436,90.266699,2036,1538,9,"Thirteen individuals, comprised of students and forestry officials",2121,265,106,8,1,2001
443,Pathi,32.529407,75.694138,1514,1538,48,"Two Hindu sisters in Pathie, Jammu and Kashmir, India",1813,1564,1414,8,2,2001
444,Shams-ud-din Khan,33.778175,76.576171,1514,1538,186,Mukhtar Ahmed Hanji,1813,1564,1414,8,2,2001
445,Surigam,34.552849,74.3508,1514,1538,186,Muzaffar Ahmed,1813,1564,1414,8,2,2001
446,Tangmang,34.05998,74.424533,1514,1538,186,Mohammad Shafi Bhat,1813,1564,1414,8,2,2001
447,Shrotidar,33.778175,76.576171,1514,1538,48,"Hindu Shepard's in Shrotidar, Jammu and Kashmir, India",1813,1564,100,8,4,2001
448,Shopian,33.717003,74.836092,1514,1538,186,Bilal Ahmad Dar,1813,1564,1414,8,4,2001
449,Watal Pora,34.071834,74.647046,200,876,296,"Village chief of Watalpora, Jammu and Kashmir, India",1813,1564,1414,8,5,2001
450,Bongaigaon District,26.54257,90.474846,2036,786,433,Soldiers from the Central Reserve Police Force,2121,674,106,8,5,2001
451,Doda district,33.14575,75.548049,592,1538,447,At least eighteen male villagers,1813,1564,29,8,5,2001
452,Ujjain,23.179301,75.78491,1514,66,19,"Two nuns in Ujjain, India",1813,1564,1414,8,6,2001
453,Mumbai,19.075984,72.877656,33,66,19,"Father Oscar Mendonca of St John the Baptist church in Mumbai, India",243,30,5,8,6,2001
454,Sonamarg,34.303162,75.293111,33,130,26,"Two female school teachers in Sonmarg, Jammu and Kashmir, India",7,403,2,8,7,2001
455,Srinagar,34.083658,74.797368,33,1538,186,Kulsooma,7,403,2,8,7,2001
456,Baramulla district,34.205141,74.349494,1514,1538,80,"Civilian residence in Baramula District, Jammu and Kashmir, India",1813,1564,1414,8,7,2001
457,Pulwama District,33.883072,74.920877,1514,1538,80,"Civilian residence in Pulwama District, Jammu and Kashmir, India",1813,1564,1414,8,7,2001
458,Bunagam,34.587222,74.243333,1514,1538,447,"Civilian in Bundagam, Badgam District, Jammu and Kashmir, India.",1813,1564,1414,8,7,2001
459,Jammu,32.726602,74.857026,1514,368,205,"Jammu Railway Station in Jammu, Jammu and Kashmir, India",1813,180,1414,8,7,2001
460,Pahalgam,34.028211,75.321852,1514,876,296,An employee of the roads and building department in Jammu and Kashmir,1813,1564,1414,8,8,2001
461,Jampuijala,23.711473,91.457648,200,876,315,Uday Debbarma,1813,1564,62,8,8,2001
462,Soibugh,34.075989,74.705217,1514,786,433,Constable Syed Attar Mohammad,1813,1564,1414,8,9,2001
463,Kalimela,17.858395,81.434522,437,786,164,"The police station in Kalimela, Orissa State, India",1813,1564,61,8,9,2001
464,Motu,17.831472,81.399432,437,786,164,"The police station in Motu, Orissa State, India",1813,180,61,8,9,2001
465,Poonch district,33.769444,74.091944,592,1538,447,"Civilian in Kaller-Katal, Jammu and Kashmir, India",1813,1564,1414,8,10,2001
466,Mohra Bachai,33.653794,74.297154,592,1538,447,"Civilian in More Bachia, Jammu and Kashmir, India",1813,1564,1414,8,10,2001
467,Songsak,25.651215,90.607391,1514,786,171,"Police Patrol near Songsak, Meghalaya State, India",1813,180,1,8,10,2001
468,Dimapur,25.906267,93.72759,592,1538,447,"Civilians in Dimapur, Nagaland State, India",1813,1564,1414,8,10,2001
469,Frisal,33.758958,75.042109,200,876,315,Muhammad Sikander Khan,1813,1564,88,8,10,2001
470,Frisal,33.758958,75.042109,200,86,73,Member: Mohammad Sikander Ganai,1813,1564,1414,8,11,2001
471,Srinagar,34.083658,74.797368,2036,786,171,"Border Security Force patrol in Srinagar, Jammu and Kashmir, India",2121,533,1414,8,11,2001
472,New Delhi,28.632381,77.220004,2036,1538,447,"Civilians in south New Delhi, India",2121,75,12,8,11,2001
473,Unknown,33.778175,76.576171,2036,368,29,"Bus Station in Jammu and Kashmir, India",2121,533,1414,8,12,2001
474,Damhal Hanjipora,33.612159,74.925482,200,876,296,Sakina Yatoo,1813,1564,1414,8,13,2001
475,Kanihama,34.016838,74.844677,1514,1538,186,Ghulam Mohammad,1813,1564,1414,8,13,2001
476,Unknown,26.275268,92.953375,2036,1538,447,"Civilians in a Bipru, India Market",2121,533,7,8,13,2001
477,Srinagar,34.083658,74.797368,1514,786,433,"Police Officer in Srinagar, India",1813,1564,1414,8,13,2001
478,Srinagar,34.083658,74.797368,2036,1538,447,"Civilians in Srinagar, Jammu and Kashmir, India",2121,674,1414,8,14,2001
479,Ghaziabad,28.67104,77.415333,2036,368,205,"Train near Muradnagar railway station in Uttar Pradesh State, India",2121,674,1414,8,14,2001
480,Bhela,33.315527,74.622476,1514,1538,48,"Hindus in Bela Village, Jammu and Kashmir, India",1813,1564,100,8,14,2001
481,Bhela,33.315527,74.622476,2036,1538,447,"Three men in Bela, Jammu and Kashmir, India",2121,533,100,8,15,2001
482,Srinagar,34.074109,74.80315,2036,1538,447,"Civilians in Noorbaugh, Jammu and Kashmir, India",2121,674,1414,8,15,2001
483,Mattan,33.760419,75.210008,200,876,296,GA Peer,2121,265,1414,8,15,2001
484,Handwara,34.399616,74.281748,2036,130,88,"Civilians at an Independence Day Celebration in Handwara, Jammu and Kashmir, India",2121,533,100,8,15,2001
485,Doda district,33.14575,75.548049,2036,786,171,"Indian Police Patrol in Hallian, Jammu and Kashmir, India",2121,265,1414,8,15,2001
486,Doda District,33.14575,75.548049,2036,786,164,"Police Station in Doda District, Kashmir",2121,43,1414,8,15,2001
487,Doda district,33.14575,75.548049,437,786,164,"Police Post in Bharwari, Jammu and Kashmir, India",1813,1564,1414,8,16,2001
488,Sangaldan,33.245395,75.085072,1514,786,164,"Indian Police at a station in Sangaldan in Udhampur District, Jammu and Kashmir, India",1813,1564,1414,8,16,2001
489,Baramulla District,34.205141,74.349494,1514,786,433,"Policeman in Baramulla District, Jammu and Kashmir, India",1813,1564,1414,8,17,2001
490,Beerwah,34.012602,74.595388,1514,1538,186,"Relatives of Abdul Rashid Malik in Beerwah, Jammu and Kashmir, India",1813,1564,1414,8,18,2001
491,Srinagar,34.083658,74.797368,2036,786,164,"Nowhatta police station in downtown Srinagar, Jammu and Kashmir, India",2121,533,1414,8,18,2001
492,Takia Hail Jageer,33.778175,76.576171,1514,1538,186,Ghulam Hasan,1813,1564,1414,8,19,2001
493,Srinagar,34.083658,74.797368,1514,1538,447,"Civilian in Srinagar, Jammu and Kashmir, India",1813,1564,1414,8,19,2001
494,Krusan,34.526482,74.401264,1514,786,433,Police in front of the home of Ghulam Mohiuddin Dar at Krusan-Lalpora,1813,1564,1414,8,20,2001
495,Bandlamudi,15.606396,79.898073,2036,786,171,"Police Patrol in Bandlamudi, Andhra Pradesh State, India",2121,265,61,8,20,2001
496,Ogaad,33.778175,76.576171,1514,786,171,"Indian Police Patrol in Ogaad, Jammu and Kashmir, India",1813,1564,1414,8,21,2001
497,Dardpora,34.509039,74.084352,1514,66,19,"Imam from a Mosque in Dardpora, Jammu and Kashmir, India",1813,1564,1414,8,21,2001
498,Dardpora,34.509039,74.084352,1514,1538,186,Mohammad Akbar,1813,1564,1414,8,21,2001
499,Durmunah,33.778175,76.576171,1514,1538,447,"Civilian in Durmanah, Jammu and Kashmir India",1813,1564,1414,8,21,2001
500,Patna,25.611,85.144,1514,1538,447,"Civilians in a villager near Pratna, India",1813,1564,61,8,22,2001
501,Dardpora,34.509039,74.084352,1514,1538,266,"Suspected Informer in Dardpora, Jammu and Kashmir, India",1813,1564,1414,8,23,2001
502,Poonch,33.767001,74.092404,1514,786,164,"Police Station in Poonch, Jammu and Kashmir, India",2121,533,100,8,23,2001
503,Mohmangad,33.778175,76.576171,1514,1538,48,"Hindu Shepherds in Mohmangad, Jammu and Kashmir, India",1813,1564,1414,8,23,2001
504,Neel,33.3402,75.198311,437,1538,186,Avtar Chand,1813,180,1414,8,23,2001
505,Kotranka,33.358818,74.519082,592,1538,221,Vishwamitter,1813,1564,1414,8,24,2001
506,Kuntwor,33.310556,75.673333,592,1538,186,Hem Raj,1813,1564,1414,8,24,2001
507,Ghat,34.190278,74.570556,1514,876,296,Nephew of senior National Conference leader Gulam Qadir Wani,1813,1564,1414,8,24,2001
508,Amroh,28.903493,78.453841,592,1538,447,"Unidentified Individual in Amroh, Jammu and Kashmir, India",1813,1564,1414,8,24,2001
509,Unknown,33.778175,76.576171,127,1538,447,"Individual in Sirgwari-Keshawan, Jammu and Kashmir, India",371,403,1414,8,24,2001
510,Ramsoo,33.336449,75.19284,1514,1538,447,Individual in Ransoo-Naushehra,1813,1564,1414,8,24,2001
511,Srinagar,34.069318,74.805012,200,876,296,Dilshada Khan,1813,44,3,8,25,2001
512,Jobat,22.416588,74.56794,33,66,8,"I P Mission Orphanage in Jobat, India",243,25,5,8,25,2001
513,Kuligaon,26.57452,91.975644,2036,1538,55,"Civilians in a truck in Kuliagon, Assam State, India",2121,533,50,8,25,2001
514,Basantgarh,32.810244,75.548777,1514,313,66,Member of the committee and his wife,1813,1564,1414,8,25,2001
515,Nasrullahpora,34.047413,74.708163,1514,1538,186,Bashir Ahmed Wani,1813,44,1414,8,25,2001
516,Baramulla District,34.205141,74.349494,200,876,315,Taj Mohiudin,2121,674,1414,8,25,2001
517,Hardumadam,33.778175,76.576171,1514,102,75,Abdul Rasheed Wani,1813,1564,1414,8,26,2001
518,Basantgarh,32.810244,75.548777,1514,1538,186,Muhammad Shafi,1813,1564,1414,8,26,2001
519,Lolab,34.525,74.391667,2036,786,171,"Police Patrol in Lolab, Jammu and Kashmir, India",2121,265,1414,8,26,2001
520,Parnot,33.228889,75.199167,200,876,296,"Village Chief of Parmot, Jammu and Kashmir, India",1813,1564,1414,8,27,2001
521,Motu,17.830222,81.401797,437,786,164,"Police Post in Motu, Orissa, India",1813,1564,61,8,27,2001
522,Surankot,33.639869,74.263416,1514,66,19,Narotam Dass,243,181,1414,8,27,2001
523,Pamrod,33.778175,76.576171,1514,1538,48,"Two Hindu Civilians in Pamrod, Jammu and Kashmir, India",1813,1564,1414,8,28,2001
524,Poonch,33.767001,74.092404,1514,1538,447,"Family Members of Basaharat Shah, in Poonch, Jammu and Kashmir, India.",1813,1564,1414,8,28,2001
525,Rajouri,33.371715,74.315313,2036,368,74,"Bus in Rajouri, Jammu and Kashmir, India",2121,674,100,8,29,2001
526,Srinagar,34.083658,74.797368,1514,368,11,Meraj-ud-din Shah,1813,1564,1414,8,29,2001
527,Hangalpawa,33.778175,76.576171,2036,368,74,"Bus in Hangalpawa, Jammu and Kashmir, India",2121,265,88,8,29,2001
528,Kupwara District,34.526179,74.254614,200,876,315,"Village Chief in Kupwara District, Jammu and Kashmir",1813,1564,1414,8,29,2001
529,Kalaroos,34.572536,74.320816,1514,1538,447,"Civilian in Kalaroos, Jammu and Kashmir, India",1813,1564,1414,8,30,2001
530,Garoora,34.367604,74.674441,1514,1538,186,"Mohammad Abdullah and his family in Garoora, Jammu and Kashmir, India",1813,1564,100,8,30,2001
531,Budgam District,34.021244,74.722282,1514,130,26,"Teacher in Budgam District, Jammu and Kashmir, India",1813,1564,1414,8,31,2001
532,Nowshehra,33.090721,74.23554,592,1538,48,"Hindu Civilians in Nowshera, Jammu and Kashmir, India",1813,1564,1414,8,31,2001
533,Gulnaz Panzan,33.9625,74.773889,1514,1538,186,Mehraj-ud-Din,1813,1564,1414,8,31,2001
534,Srinagar district,34.083658,74.797368,2036,368,11,"Civilians traveling on Srinagar-Ganderbal Road on the outskirts of Habbak, India",2121,80,18,9,1,2001
535,Doda,33.14575,75.548049,2036,786,164,Doda District Police Headquarters,2121,533,100,9,2,2001
536,Janbazpora,34.223761,74.365861,2036,130,88,Schoolchildren in the town of Janbazpora.  Killed in the attack were toy boys named Mehraj-ud-din and Abdul Majid.,2121,674,1414,9,4,2001
537,Digdol,33.300854,75.179344,2036,313,18,Indian military riding in a bus that was on the Jammu-Srinagar National Highway,2121,80,1414,9,6,2001
538,Pahalgam,34.016075,75.31498,2036,130,16,"Schoolchildren in buses near Matan, India",2121,80,1414,9,8,2001
539,Jammu district,32.726602,74.857026,2036,313,66,Border Security Forces on the Jammu-Srinagar Highway of India,2121,80,88,9,8,2001
540,Udhampur district,32.925224,75.135264,2036,313,77,Indian Army soldiers travelling along a road near Angarala village in the Udhampur District,2121,80,1414,9,9,2001
541,Maredumili,17.597128,81.715294,2036,786,433,Central Reserve Police Force officers in Marrdmalli,2121,265,61,9,9,2001
542,Ratnal,32.548637,74.847789,2036,313,86,"Indian Army patrol in Ratnal, India",2121,674,88,9,10,2001
543,Udhampur,32.925224,75.135264,2036,313,66,Indian Border Guards in their jeep in Udhampar,2121,265,1414,9,15,2001
544,Srinagar,34.083658,74.797368,2036,786,171,Indian Security Personnel in their vehicles in Srinagar,2121,533,1414,9,15,2001
545,Handwara,34.399616,74.281748,1514,786,433,Police officers in Handawar,1813,1564,100,9,17,2001
546,Churchu,23.907766,85.513586,2036,786,433,Churchu police forces in the Abroja Forest,2121,265,24,9,23,2001
547,Baghmara,26.515135,90.679677,2036,368,205,At least 100 passengers on the North-East Express train,2121,80,106,9,25,2001
548,Saluru,18.532167,83.217282,200,786,433,"M. Ghandi, a local Indian police inspector and his bodyguard named Chiranjeevi",1813,1564,61,9,28,2001
549,Srinagar,34.083658,74.797368,2036,876,296,"Jammu and Kashmir State Assembly in Srinagar, India.",2121,75,18,10,1,2001
550,Jaipur,24.587139,86.845249,2036,786,171,Police patrol in Bihar state,2121,265,61,10,20,2001
551,Awantipora,33.921168,75.014605,1514,313,63,Awantipora air force base in India,1813,180,100,10,22,2001
552,Pedavadlapudi,16.408954,80.610956,1514,417,9,"Coca Cola bottling plant in Andhra Pradesh, India",243,181,34,10,22,2001
553,Gauripur,26.090175,89.964447,2036,1538,48,Hindu civilians at a festival in Gauripur,2121,674,106,10,25,2001
554,Charura,33.778175,76.576171,1514,786,164,Charura police station,1813,180,18,10,26,2001
555,Srinagar,34.083658,74.797368,2036,313,86,BSF patrol,2121,533,1414,10,26,2001
556,Koram,17.092869,79.388372,592,876,296,Minister of state for Home relatives Marthanda and Vinod Rao,1813,1564,34,10,27,2001
557,Kathua,32.371698,75.522909,2036,786,171,Police patrol in Kashmir,2121,265,88,10,27,2001
558,Srinagar,34.083658,74.797368,2036,786,171,Security patrol in Srinagar,2121,533,1414,10,27,2001
559,Dhubri,26.020916,89.97445,1514,786,171,"Police patrol in Assam, India",1813,180,1414,10,28,2001
560,Srinagar,34.083658,74.797368,1514,786,171,"Indian Police patrol near Srinagar, Kashmir",1813,1564,88,11,2,2001
561,Anantnag,33.733336,75.148983,2036,313,77,Indian soldiers at an army camp in Anantnag district of South Kashmir,2121,533,100,11,3,2001
562,Tral,33.932201,75.113944,1514,313,86,"Indian paramilitary patrol in Tral, India",1813,1564,1414,11,10,2001
563,Srinagar,34.083658,74.797368,2036,876,296,"Ali Mohammed Sagar, a senior minister in Jammu and Kashmir",2121,533,4,11,14,2001
564,Ajas,34.333523,74.6781,1514,313,86,"Indian army patrol in Ajas, India",1813,180,1414,11,15,2001
565,Mand,32.888165,74.985168,1514,313,77,"Indian soldiers in Manda, India",1813,1564,1414,11,15,2001
566,Srinagar,34.083658,74.797368,2036,313,77,"Indian soldiers in Srinagar, India",2121,533,1414,11,15,2001
567,Jammu district,32.726602,74.857026,1514,313,77,Indian Soldiers,2121,533,100,11,18,2001
568,Srinagar,34.069832,74.809039,2036,313,18,Indian security vehicle,2121,533,92,11,23,2001
569,Bandipora,34.419539,74.63827,1514,313,63,An Indian Army camp in Baipora,2121,533,100,11,24,2001
570,Banihal,33.437013,75.193934,2036,786,433,Indian police officers near Banihal,2121,533,100,11,25,2001
571,Pileru,13.655171,78.941308,2036,417,19,Heritage Foods milk plant in Pileru,2121,53,61,11,29,2001
572,Hyderabad,17.39182,78.538431,2036,417,19,Gopikrishna Granite factory in Ramanthapur,2121,674,61,11,29,2001
573,Brahmanpalli,14.58802,79.169174,2036,417,19,A Tata Coffee factory in Brahmanpalli,2121,674,61,11,29,2001
574,Kharouta,32.891944,74.850833,1514,1538,48,Muslim villagers and members of the village defense committee in Kharout,1813,1564,29,11,30,2001
575,Bandipora,34.419539,74.63827,2036,313,86,"Indian Border Security Force (BSF) at Bandipora, India",2121,533,1414,12,1,2001
576,Unknown,33.778175,76.576171,2036,83,221,Unknown,2121,315,1414,12,1,2001
577,Asifabad,19.361145,79.292385,2036,876,12,"District courthouse in Asifabad, India",2121,674,61,12,1,2001
578,Poteru,17.951667,81.691111,2036,876,296,"The home of Arabinda Dhali, the Textiles and Cooperation Minister for Orissa",2121,674,61,12,1,2001
579,Trimblii,32.526111,75.632222,1514,1538,48,Hindu civilians attending a wedding,1813,1564,1,12,2,2001
580,Karbi Anglong district,26.088862,93.577103,2036,876,101,Polling officials traveling to polling stations in Karbi Anglong district,2121,533,7,12,3,2001
581,Krishnaghati,33.778175,76.576171,200,876,12,Sessions Judge of Rajaori Mr. Vijay Kumar Phool,1813,180,1414,12,5,2001
582,Baramulla,34.205141,74.349494,1514,313,86,Indian convoy in Baramullah,1813,180,1414,12,8,2001
583,New Delhi,28.632381,77.220004,1514,876,143,Indian Parliament Building in New Delhi,1813,180,1414,12,13,2001
584,Achabal,33.683444,75.219568,2036,1538,447,"Civilians in Achabal, India",2121,533,1414,12,18,2001
585,Srinagar,34.083658,74.797368,1514,786,433,Srinagar Police Officers,1813,180,1414,12,18,2001
586,Kanthol,33.322586,74.505312,1514,1538,447,"Civilians in Kanthol, India",1813,180,1414,12,30,2001
587,Bandipora,34.419539,74.63827,1514,1538,186,Mohammad Akbar Khan  in Bandipora in Jammu and Kashmir,1813,1564,1414,1,1,2002
588,Yaripora,33.724008,75.017854,1514,313,63,"Indian Army Camp in Waripora Tangmarg, India",1813,180,1414,1,1,2002
589,Pathankot,32.264338,75.642112,1514,313,77,Indian Army Personnel,2121,43,1414,1,1,2002
590,Poonch District,33.767001,74.092404,1514,1538,48,"Hindu Family, particularly the head of the family, Baldev Raj, a former Indian soldier",1813,1564,100,1,1,2002
591,Srinagar,34.083658,74.797368,2036,1538,78,"Indian civilians shopping at a market in Srinagar, India",2121,533,1414,1,2,2002
592,Pathankot,32.264338,75.642112,1514,313,77,Indian Army Soldiers,1813,1564,1414,1,2,2002
593,Srinagar,34.071901,74.804964,2036,786,433,"Central Reserve Police Force in Kashmir, India",2121,533,1414,1,2,2002
594,Darhal,33.484481,74.41299,2036,313,86,Indian Army Convoy,2121,315,1414,1,2,2002
595,Jamaslan,33.286298,74.915031,1514,313,66,Indian Border Roads Organization personnel,1813,1564,1414,1,6,2002
596,Banihal,33.437013,75.193934,1514,1538,66,Home of a member of Village Defense Committee,1813,1564,1414,1,6,2002
597,Kupwara,34.526179,74.254614,2036,313,63,Indian Brigade Headquarters in India-controlled Kashmir,2121,533,1414,1,9,2002
598,Singicherra,23.940848,91.988153,1514,1538,78,Civilians at the Tripura market in northeast India,1813,1564,62,1,12,2002
599,Dailongjhar,26.137484,92.884738,1514,1538,447,Civilians living in Dailongjhar village,1813,180,106,1,16,2002
600,Jammu,32.726602,74.857026,2036,1538,78,Civilians at Kanak Mandi market,2121,674,12,1,17,2002
601,Kolkata,22.572646,88.363895,2036,130,88,American Cultural Center Calcutta Building,2121,674,10,1,22,2002
602,Kupwara,34.526179,74.254614,2036,313,77,Indian Soldiers,2121,674,100,1,30,2002
603,Reasi,33.08026,74.836625,2036,1538,447,Civilians in a crowded area in Reasi,2121,674,12,1,31,2002
604,Satnaur,31.26653,76.108075,2036,368,74,Passengers on a bus in Punjab,2121,674,1414,1,31,2002
605,Pattan,34.16047,74.555116,1514,876,315,Sheikh Sadiq,1813,1564,1414,2,1,2002
606,Saim Samout,33.430833,74.318889,1514,1538,186,Mohammed Hussain,243,181,1414,2,3,2002
607,Chatra district,24.204235,84.870937,1514,786,171,A police convoy,1813,1564,24,2,4,2002
608,Tentha,24.580256,93.972041,1514,1538,189,"Suresh Singh, a Congress candidate in Wangjing Tengtha, and his party workers",1813,1564,29,1,30,2002
609,Chelama,15.422543,78.695173,2036,368,205,"Chelma train station in Kurnool, India",2121,674,61,2,11,2002
610,Nagpur,21.1458,79.088155,1514,876,296,Gadchiroli District Congress President Malu Bogami,1813,1564,34,2,11,2002
611,Imphal,24.817011,93.936844,1514,876,315,"L Ibomcha Singh, a member of the Federal Party of Manipur",1813,1564,29,2,12,2002
612,Bachay,33.778175,76.576171,1514,786,433,SPO Mohammad Yasin,243,181,100,2,13,2002
613,Imphal,24.791928,93.933021,1514,1538,189,"L Jayanta Singh, a Congress candidate",1813,1564,29,2,12,2002
614,Imphal,24.786944,93.926667,1514,313,86,"BSF patrol near Moirangpural, India",1813,1564,1414,2,14,2002
615,Bathian,33.778175,76.576171,1514,876,315,National Conference activist Mirza Tazeem Ahmed,1813,12,18,2,14,2002
616,Nirala Kalkot,33.778175,76.576171,1514,1538,48,Hindu civilians in Nirala Kalkot,1813,1564,92,2,16,2002
617,Rajouri,33.375335,74.314474,2036,313,63,Army divisional headquarters in Rajouri,2121,43,29,2,17,2002
618,Giridh district,24.179793,86.306772,2036,368,205,The railway tracks between Parasnath and Nimiaghat railway stations,2121,674,24,2,20,2002
619,Hazaribagh district,23.997574,85.359349,1514,1538,447,Civilians stopped at a road blockade on the Patna-Ranchi national highway,1813,1564,24,2,20,2002
620,Tellerai,18.033333,81.746389,200,876,296,"Arabinda Dhali, the state Co-operative and Textiles Minister",2121,265,61,2,23,2002
621,Awantipora,33.921168,75.014605,2036,368,11,"Srinagar-Jammu highway in Awantipora, India",2121,7,1414,1,24,2002
622,Doda district,33.14575,75.548049,2036,368,43,Jhangalwar bridge in Jammu region's Doda district,2121,7,1414,1,24,2002
623,Churachandpur district,24.34641,93.700086,1514,1538,447,"Indiscriminate civilians in civilians in Assam, a northeastern state in India",1813,1564,238,3,15,2002
624,Srinagar,34.083658,74.797368,2036,313,63,"Border Security Force Kashmir Frontier headquarters in Srinagar City, India",2121,533,100,3,18,2002
625,Unknown,24.663717,93.906269,592,876,296,"Yambem Thamkishore, Chandel's deputy commissioner",1813,1564,4,3,18,2002
626,Shopian,33.717003,74.836092,2036,1538,78,"Indiscriminate civilians in a marketplace located in Shopiyan, India",2121,533,1414,3,22,2002
627,Anantnag,33.733336,75.148983,2036,786,433,"Police officers on duty in Anantnag, India",2121,533,1414,3,22,2002
628,Srinagar,34.079936,74.808308,2036,786,433,"Police officers on duty in Habba Kadal, India",2121,533,1414,3,23,2002
629,Jammu,32.726602,74.857026,2036,66,35,Hindu Raghunath Temple in Indian-controlled Jammu,2121,533,3,3,30,2002
630,Rajouri,33.371715,74.315313,2036,417,51,A sweets shop in Rajouri,2121,674,12,4,8,2002
631,Gandoh Bhalessa,33.032216,75.910031,1514,1538,186,"The family members of Noor Gujjar, a suspected informant",1813,180,12,4,9,2002
632,Rajouri,33.371715,74.315313,2036,417,11,The Sharan Hotel in Rajouri,2121,533,1414,11,4,2002
633,Lasana,33.702222,74.218611,2036,1538,48,Muslims driving in a vehicle near Lassana village,2121,533,29,11,4,2002
634,Rajouri district,33.371614,74.315191,1514,313,66,Border troops in Gaibas,1813,1564,1414,4,12,2002
635,Dimapur,25.92,93.73,2036,876,315,A leader of National Socialist Council of Nagaland Isak-Muivah (NSCM[I-M]),2121,674,1414,4,14,2002
636,Awantipora,33.921168,75.014605,2036,313,86,Indian Army convoy in Avantipura,2121,674,1414,4,16,2002
637,Balhama,34.033889,74.939444,1514,1538,186,Mahada Sheikh and members of his household,1813,1564,92,4,16,2002
638,Doda district,33.14575,75.548049,2036,368,74,Civilians on a bus in Grat Mode,2121,80,1414,4,25,2002
639,Bijbehara,33.791836,75.106247,2036,1538,78,Indian civilians shopping at or near the market,2121,533,1414,5,1,2002
640,Unknown,10.850516,76.271083,437,417,10,The Asian Development Bank's consulting office in Kerala,382,46,1,5,1,2002
641,Mahore,33.309577,74.859485,592,1538,447,A girl from Mahore tehsil,1813,1564,1414,5,3,2002
642,Sadwan,33.778175,76.576171,1514,786,433,Former Special Police Officers Mohammad Abbas and Abdul Jabar,1813,1564,1414,5,3,2002
643,Jammu,32.65905,74.881414,1514,313,63,Indian Army base in Kaluchak,1813,180,100,5,14,2002
644,Udhampur,32.925224,75.135264,2036,313,63,Chasana Army Camp,2121,43,1414,5,19,2002
645,Manjakot,33.476222,74.255208,1514,313,77,Indian Military Personnel in Manjakot,1813,1564,1414,5,20,2002
646,Ramsoo,33.336449,75.19284,1514,313,77,Indian Military Personnel in Ramsu,1813,1564,1414,5,20,2002
647,Srinagar,34.083658,74.797368,200,876,315,Political Leader in Srinagar,2121,533,1414,5,21,2002
648,Unknown,24.663717,93.906269,1514,313,66,Members of Assam Rifles Battalion in Manipur,1813,1564,4,5,27,2002
649,Doda,33.14575,75.548049,2036,313,77,Personnel inside the Doda District Police Lines (DPL),2121,533,100,5,29,2002
650,Ahmedabad,23.022505,72.571362,2036,368,74,"Civilians on a public bus in Ahmedabad, India",2121,674,1414,5,29,2002
651,Ahmedabad,23.022505,72.571362,2036,368,74,"Civilians on a public bus in Ahmedabad, India",2121,674,1414,5,29,2002
652,Ahmedabad,23.022505,72.571362,2036,368,74,"Civilians on a public bus in Ahmedabad, India",2121,674,1414,5,29,2002
653,Ahmedabad,23.022505,72.571362,2036,368,29,"Civilians at a bus station in Ahmedabad, India",2121,674,1414,5,29,2002
654,Ahmedabad,23.022505,72.571362,2036,368,29,"Civilians at a bus station in Ahmedabad, India",2121,674,1414,5,29,2002
655,Srinagar,34.083658,74.797368,1514,25,21,"Zafar Iqbal, a reporter for the newspaper Kashmir Images",1813,1564,8,5,29,2002
656,Srinagar,34.083658,74.797368,2036,313,77,Indian paramilitary border security,2121,533,1414,6,1,2002
657,Srinagar,34.083658,74.797368,200,876,296,The Chief Minister of Indian Kashmir,2121,533,4,6,15,2002
658,Jammu,32.726602,74.857026,2036,1538,48,Hindu Pilgrims in Jammu,2121,533,1414,6,15,2002
659,Udhampur district,32.925224,75.135264,1514,1538,447,Villagers living in Balmakote,1813,1564,4,6,16,2002
660,Srinagar,34.083658,74.797368,2036,876,315,National Conference Party Delegates,2121,533,88,6,23,2002
661,Doldoli,26.232199,93.975616,1514,417,23,Employees of the Oil and Natural Gas Corporation (ONGC),1813,180,106,6,24,2002
662,Kupwara,34.526179,74.254614,200,876,296,A Minister in the Town of Kupwara,2121,533,1414,6,24,2002
663,Anantnag,33.733336,75.148983,2036,1538,447,Citizens in Anantnag,2121,533,1414,6,27,2002
664,Phraslan,34.061475,75.366359,2036,313,77,Military Forces Travelling Near Frislan,2121,674,88,6,27,2002
665,Chandrapura,23.755522,86.119698,2036,368,205,The Patna-Hatia Superfast Express train,2121,674,1414,6,27,2002
666,Srinagar,34.083658,74.797368,1514,876,296,"Ghulam Nabi Dar, Chairman of Awami Mahaz",1813,44,1414,7,5,2002
667,Ind,33.2175,75.031667,2036,786,433,"Indian target security forces in Indh, India",2121,674,92,7,8,2002
668,Chanapora,34.033703,74.808308,200,25,21,"Journalist of State Reporter, Abdul Rashid Tantray",1813,44,1414,7,10,2002
669,Srinagar,34.083658,74.797368,200,25,21,Editor Rashid Shahid,1813,1564,1414,7,10,2002
670,Jammu,32.726602,74.857026,1514,1538,221,Civilians residing in the Kanshipur labor camp.,1813,1564,100,7,13,2002
671,Jammu,32.726602,74.857026,2036,1538,48,Hindu Civilians,2121,533,100,7,13,2002
672,Bhumka Maligaon,26.400871,90.266018,1514,1538,447,Refugees from the Adivasi tribe,1813,1564,106,7,14,2002
673,Srinagar,34.083658,74.797368,2036,1538,447,"Civilians in Srinagar, India",2121,674,1414,7,17,2002
674,Srinagar,34.083658,74.797368,2036,786,171,"Central Reserve Police Force car in Srinagar, India",2121,80,88,7,22,2002
675,Rajouri,33.371715,74.315313,2036,1538,447,Civilians in a crowded area of Rajouri town,2121,533,4,7,23,2002
676,Anantnag,33.733336,75.148983,2036,786,433,"Police Officers in Kashmir, India",2121,533,1414,7,24,2002
677,Budgam,34.021244,74.722282,2036,786,433,"Police Officers in Badgom, India",2121,533,1414,7,27,2002
678,Pulwama,33.871517,74.89955,2036,786,433,"Border Security Force Battalion in Pulwama, India",2121,533,1414,7,29,2002
679,Pulwama,33.871517,74.89955,1514,786,164,"Police post in Pulwama, India",2121,533,1414,7,30,2002
680,Anantnag,33.733336,75.148983,2036,1538,48,"Hindu Pilgrims in Anantnag, India",2121,533,1414,7,30,2002
681,Khrew,34.020919,74.999776,1514,786,164,Police at a post at Khrew village,2121,533,1414,7,30,2002
682,Pulwama,33.871517,74.89955,1514,876,315,Fayaz Ahmad Bhat and other National Conference Party officials,1813,1564,8,7,31,2002
683,Lazbal,33.778175,76.576171,2036,1538,48,"Yatri Pilgrims in Lazbal, India",2121,674,1414,7,31,2002
684,Srinagar,34.083658,74.797368,2036,876,143,Congressmen in Jammu and kashmir at Maulana Azad Road,2121,533,1414,8,2,2002
685,Pahalgam,34.016075,75.31498,2036,1538,48,Hindu pilgrims,2121,674,100,8,6,2002
686,Rajouri,33.371715,74.315313,2036,1538,66,Indian Kashmiris in a marketplace in Rajouri District,2121,533,1414,8,6,2002
687,Kupwara district,34.526179,74.254614,1514,313,63,Indian Army outpost in the Kupwara district,2121,533,14,8,6,2002
688,Tral,33.932201,75.113944,200,876,315,"Ghulam Hassan Jan, president of a Tehsil and official of Kashmir's ruling party National Conference",1813,1564,1414,8,7,2002
689,Patrada,33.778175,76.576171,1514,1538,55,A couple and their 2 kids in Patrada village,1813,1564,1414,8,7,2002
690,Bijbehara,33.792909,75.103907,2036,313,86,Security convoy at Bijbehara,2121,533,1414,8,8,2002
691,Gathalpadar,20.776665,84.898565,2036,313,66,Central Reserve Police Force in the state of Andhra Pradesh,2121,265,61,8,11,2002
692,Pulwama district,33.872342,74.900416,1514,313,77,Indian forces in South Kashmir,2121,43,92,8,13,2002
693,Srinagar district,34.083658,74.797368,2036,313,66,"Indian Paramilitary forces in Srinagar area, Jammu & Kashmir",2121,533,92,8,13,2002
694,Raksamgiri,25.873163,90.403145,1514,1538,55,Civilians in a truck in Meghalaya state,1813,180,106,8,13,2002
695,Kotalpakur,24.73869,87.826729,2036,368,205,"Passengers in a train near Kotalpukur railway station, Jharkhand State",2121,674,1414,8,15,2002
696,Maladhara,26.04215,90.456134,2036,786,433,Police officers in Maladhara,2121,265,238,8,22,2002
697,Rajouri district,33.371614,74.315191,1514,1538,48,Muslim villagers at Dudansaballa,1813,1564,29,8,24,2002
698,Chamrajnagar district,11.926147,76.943731,592,876,296,"H. Nagappa, a former state government minister, and his bodyguard",1813,180,2,8,25,2002
699,Poonch district,33.769444,74.091944,1514,786,433,The family members of a police officer near Iqbal Nagar,1813,1564,12,8,25,2002
700,Palhalan,34.180039,74.542378,200,876,315,Haji Aziz Bhat,1813,180,1414,8,27,2002
701,Udhampur district,32.925224,75.135264,1514,1538,447,Three family members of the Bakarwal community,1813,1564,1414,8,30,2002
702,Gunthal,33.65,74.288611,1514,876,296,"The children of Revenue Department employee, Mohd Qayoom",1813,1564,1414,9,1,2002
703,Bandipora,34.419539,74.63827,592,876,315,Ghulam Mohammad Bhat from the National Conference party,243,181,12,9,1,2002
704,Sheikhpora,34.188027,74.731146,200,876,296,"Sheikh Mustafa Kamaal, state Industries Minister",1813,1564,29,9,2,2002
705,Kunzer,34.084253,74.504122,1514,876,315,"Mustafa Lone, a member of National Conference party",1813,1564,12,9,5,2002
706,Srinagar,34.015318,74.797339,1514,876,315,"Mohammed Amin, from the People's Democratic Party",1813,1564,12,9,5,2002
707,Gorni,32.8975,74.893056,200,876,315,Sheikh Abdul Rahman,1813,1564,8,9,6,2002
708,Dodasan Pain,33.449444,74.318611,1514,1538,48,A Hindu family living in Dodasanpai village,1813,1564,12,9,8,2002
709,Mumbai,19.075984,72.877656,13,3,2,"An Air Seychelles flight departing from Bombay, India, and bound for Male, Maldives",243,181,2,9,9,2002
710,Kupwara,34.526179,74.254614,200,876,296,Mushtaq Ahmed Lone,1813,1564,4,9,11,2002
711,Surankot,33.639869,74.263416,1514,1538,447,Civilians at a bus stand in Surankote,1813,1564,4,9,11,2002
712,Anantnag District,33.733336,75.148983,200,876,296,Jammu and Kashmir Tourism Minister Sakeena Itoo,2121,674,1414,9,15,2002
713,Batpora,34.086149,74.515567,2036,1538,447,Civilians in the vicinity of a polling station,2121,674,29,9,16,2002
714,Jamaslan,33.286298,74.915031,1514,1538,48,Hindu students and teachers at a government high school,1813,1564,29,9,19,2002
715,Srinagar,34.083658,74.797368,1514,876,315,"Azad Ahad Khan, a National Conference worker",1813,1564,4,9,19,2002
716,Mirhama,33.644662,74.962523,2036,876,296,Jammu and Kashmir Minister of Tourism Sakina Itoo while traveling in Mirhama.,2121,265,88,9,21,2002
717,Gandhinagar,23.229357,72.674105,2036,66,35,Akshardham Hindu temple complex in Gandhinagar,2121,533,8,9,24,2002
718,Srinagar,34.083658,74.797368,2036,313,86,Indian Army convoy passing through Srinagar,2121,533,1414,9,26,2002
719,Pahloo,33.636175,75.048703,2036,1538,189,"Khalida Mushtaq, an NCP Candidate",2121,674,1414,9,28,2002
720,Hiranagar,32.455637,75.272766,1514,368,74,Hindu civilians on a bus in Hiranagar,1813,1564,1414,10,1,2002
721,Jaktial,33.778175,76.576171,200,876,315,Three members of the National Conference Party in Jaktial,1813,1564,1414,10,2,2002
722,Bishnupur,24.440294,92.181871,592,1538,447,Villagers from Bishnupur,1813,1564,62,10,2,2002
723,Kalimpong,27.067992,88.47127,200,1538,186,"C K Pradhan, the former Executive Councillor of Darjeeling Gorkha Hill Council",1813,44,3,10,3,2002
724,Doda,33.14575,75.548049,1514,876,101,"Voters at a polling station in Doda, India",2121,533,100,10,8,2002
725,Kangan,34.264018,74.901055,200,1538,189,Abdul Rashid Ganai,2121,533,1414,10,11,2002
726,Bongaigaon,26.47998,90.559979,2036,1538,48,Hindu civilians,2121,533,1414,10,13,2002
727,Anantnag,33.733336,75.148983,2036,1538,78,"Civilians at a market in Anantnag, Kashmir",2121,533,1414,10,23,2002
728,Dadgiri,26.200604,92.937574,1514,1538,447,Villagers living in Dadgiri,1813,1564,106,10,27,2002
729,Guwahati,26.1503,91.736061,2036,876,296,State legislators and bureaucrats living in a housing complex in Guwahati,2121,43,1,10,27,2002
730,Srinagar,34.083658,74.797368,2036,1538,186,"Mufti Muhammad Sayeed, Indian Politician in Srinagar",2121,533,3,11,2,2002
731,Srinagar,34.083658,74.797368,1514,876,315,Congress Party leader Mohammad Sikandar Khan,1813,1564,4,11,2,2002
732,Srinagar,34.083658,74.797368,2036,786,164,A police colony in Srinagar,2121,533,4,11,2,2002
733,New Delhi,28.632381,77.220004,1514,1538,78,Indiscriminate civilians at a shopping mall in New Delhi,1813,44,1414,11,3,2002
734,Anantnag,33.733336,75.148983,2036,786,433,Indiscriminate civilians shopping at a market in Anantnag,2121,533,1414,11,6,2002
735,Wawoora,33.778175,76.576171,1514,786,433,Former militant Special Police Officer in a mosque in the Wawoora village,1813,1564,1414,11,8,2002
736,Anantnag district,33.733336,75.148983,1514,786,433,Former militant Special Police Officer in the Anantanag District,1813,44,1414,11,8,2002
737,Srinagar,34.083658,74.797368,2036,876,315,The office of the Democratic Freedom Party (DFP),2121,533,1414,11,11,2002
738,Ramsoo,33.336449,75.19284,2036,786,171,CRPF bus driving in Ramsu village,2121,265,1414,11,11,2002
739,Lasana,33.702222,74.218611,2036,1538,55,Passengers on a private-owned bus in Lasana,2121,75,1414,11,13,2002
740,Lasana,33.702222,74.218611,2036,786,433,Indian police officers in Lasana,2121,75,1414,11,13,2002
741,Chintagudem,17.153224,80.628958,2036,368,74,Indiscriminate passengers on a bus near Chintagudam,2121,265,61,11,18,2002
742,Bandipora,34.419539,74.63827,200,876,296,"Ghulam Nabi Ganai, the elder brother of legislator Usman MajidIndian",1813,1564,1414,11,20,2002
743,Tumalacheruvu,16.525102,79.799103,2036,368,205,Tumalacheruvu railway station,2121,53,1414,11,20,2002
744,Latehar district,23.744186,84.504429,2036,786,171,Indian police driving on Daltonganj-Mahuadand Road in Latehar district,2121,265,61,11,20,2002
745,Hyderabad,17.376812,78.487812,2036,66,35,"A Hindu temple in the Sarurnagar area, near Hyderabad",2121,75,1414,11,21,2002
746,Srinagar,34.071928,74.814889,2036,786,164,A Central Reserve Police Force (CRPF) camp in Regal Chowk,2121,11,100,11,21,2002
747,Lower Mundah,33.547976,75.210152,2036,313,18,Indian army bus located at Lower Munda,2121,265,8,11,23,2002
748,Jammu,32.726602,74.857026,2036,66,35,Raghunath Temple in Jammu,2121,533,100,11,24,2002
749,Pondugula,16.583932,80.262024,2036,368,205,Pondugula railway station,2121,53,61,11,25,2002
750,Mukinda,16.388553,80.009761,2036,368,74,RTC bus in Mukinda village,2121,533,61,11,25,2002
751,Srinagar,34.083658,74.797368,2036,25,1,State-owned All India Radio station building in Srinagar,2121,43,2,11,28,2002
752,Srinagar,34.091916,74.817082,2036,786,164,A Border Security Force camp in the Khanyar area of Srinagar,2121,674,1414,11,30,2002
753,Unknown,33.778175,76.576171,1514,313,86,"An Indian Army convoy in Kashmir, India",1813,1564,92,12,1,2002
754,Bun Doda,33.778175,76.576171,1514,313,66,Rashtriya Rifles,1813,1564,100,12,1,2002
755,Mumbai,19.075984,72.877656,2036,368,74,Civilians on a bus in Mumbai,2121,674,1414,12,2,2002
756,Damhal-Hanjipora,33.612159,74.925482,2036,876,296,"Sakine Itoo, former Indian Tourism Minister, at his home in Damhal-Hanjipora",1813,180,1414,12,2,2002
757,Pulwama,33.871517,74.89955,2036,786,171,Patrol,2121,533,1414,12,5,2002
758,New Heaven,24.663717,93.906269,1514,313,86,An Indian Army Convoy operating near New Heaven,1813,1564,1414,12,9,2002
759,Srinagar,34.083658,74.797368,2036,313,77,"Indian soldiers standing guard in the Raj Bagh locality of Srinagar, India",2121,80,2,12,12,2002
760,Rajouri,33.371715,74.315313,2036,1538,78,Civilians near the market place in Rajouri,2121,533,92,12,16,2002
761,Kulgam,33.644991,75.018031,2036,313,66,Border Security Force soldiers,2121,533,92,12,18,2002
762,Srinagar,34.083658,74.797368,2036,786,433,Indian police officers in Srinagar,2121,533,92,12,18,2002
763,Baramulla District,34.205141,74.349494,1514,313,77,Indian Army soldier,1813,1564,92,12,18,2002
764,Udhampur District,32.925224,75.135264,127,313,86,Indian Army soldier,371,403,92,12,18,2002
765,Rajouri,33.371715,74.315313,1514,1538,447,Civilians,1813,1564,92,12,19,2002
766,New Delhi,28.632381,77.220004,2036,786,433,Central Reserve Police Force Officers,2121,533,92,12,19,2002
767,Konibal,34.008406,74.948482,200,876,296,Abdul Aziz Mir,1813,11,3,12,20,2002
768,Bayyaram,17.571202,80.102984,200,876,315,Vice President T Ramaiah,243,181,1414,1,2,2003
769,Pahalgam,34.016075,75.31498,200,1538,447,Local informant to Indian troops,1813,1564,1414,1,2,2003
770,South Tripura district,23.231749,91.559612,1514,313,66,India Border Security Personnel,2121,265,62,1,3,2003
771,Bodhanam,16.614143,79.936311,592,876,296,Government Officials attached to the Janmabhoomi Program in India,2121,265,61,1,3,2003
772,Gambhirpur,18.22236,78.605883,200,876,315,Telugu Dessam Party (TDP) leader Katta Narayana at Gambirpur,1813,1564,1,1,3,2003
773,Azamnagar,18.511984,80.065124,2036,876,315,Telugu Dessam Party forest office at Ajamnagar,2121,674,92,1,3,2003
774,Ghanpur,17.853241,79.373979,2036,876,296,D Rameshwar Rao's residence,2121,265,92,1,3,2003
775,Kulgam,33.644991,75.018031,2036,786,171,Indian Central Reserve Police Force patrol party in the crowded Kulgam bus stand in South Kashmir,2121,533,1414,1,5,2003
776,Kothur,16.686167,79.941782,2036,876,296,State Officials working on the Janmbhoomi program in Guntur District,2121,265,61,1,5,2003
777,Srinagar,34.083658,74.797368,200,417,51,Liquor Store Owner Abdul Hamid Sheikh,1813,1564,1414,1,6,2003
778,Sumbal,34.230705,74.647311,200,1538,186,Abdul Rashid Khan,243,181,1414,1,9,2003
779,Ahem Sharief,34.448698,74.662732,200,1538,186,Manzoor Ahmed,1813,1564,1414,1,9,2003
780,Poonch,33.767001,74.092404,1514,1538,186,Barkat Bibi and her son Mohammed Shakeel,1813,1564,1414,1,10,2003
781,Kheora,33.389053,74.314021,2036,66,35,Kheora Mosque,2121,533,1414,1,10,2003
782,Baramulla,34.205141,74.349494,200,1538,186,Abdul Gani,1813,44,1414,1,11,2003
783,Madimalla,17.942675,82.04757,200,86,73,Village Head: Vidyasagar Rao,1813,1564,61,1,11,2003
784,Dachepalle,16.593801,79.737422,2036,876,143,Dachepalli Mandal Local Body Office,2121,674,61,1,11,2003
785,Peddaktnta,14.485967,78.161951,1514,417,221,"Truck in Peddaktnta, India",382,329,61,1,12,2003
786,Peddaktnta,14.485967,78.161951,200,1538,447,Suspected Police Informant P Mogili,1813,1564,61,1,12,2003
787,Panar,33.638889,74.44,592,1538,186,Brothers Miru and Ismail Katarai,1813,1564,1414,1,13,2003
788,Thiruvananthapuram,8.496142,76.943725,1514,66,19,Visiting American Protestant Missionary Joseph Cooper,243,25,4,1,13,2003
789,Srinagar,34.083658,74.797368,200,1538,189,Ghulam Hassan Chopan,1813,1564,92,1,14,2003
790,Baramulla,34.205141,74.349494,2036,313,18,Border Security Force transport vehicle,2121,674,1414,1,15,2003
791,Hajan,34.298183,74.613691,200,876,315,State Assembly Person Akbar Lone,2121,80,1414,1,16,2003
792,Unknown,20.951666,85.098524,2036,786,164,A newly constructed Police post,2121,53,61,1,16,2003
793,Kulgam,33.644991,75.018031,2036,313,86,"Bus transporting Indian Security Forces in Kulgam, India",2121,533,92,1,19,2003
794,Karbi Anglong district,26.1851,93.581849,2036,368,205,Calcutta bound passenger train in Karbi Anglong,2121,674,7,1,20,2003
795,Baramulla,34.205141,74.349494,2036,313,18,"Border Security Force transport vehicle in Baramulla, India",2121,674,1,1,20,2003
796,Isaipet,18.303802,83.328549,437,89,221,Andhra Pradesh Transco sub-stations,382,46,61,1,20,2003
797,Chukkapur,16.879132,78.46631,437,89,221,Andhra Pradesh Transco sub-stations,382,46,61,1,20,2003
798,Tarahati Kalinzar,25.010921,80.485487,1514,12,8,Tourists visiting Kalinjer Fort,1813,180,1414,1,21,2003
799,Saraikul,34.606944,74.371944,1514,876,315,Party Activist Ghulam Rasool Dar,1813,1564,1414,1,23,2003
800,Nagshereen,33.778175,76.576171,200,876,315,Mohammed's brother Nasir Bandey,1813,1564,1414,1,24,2003
801,Thingkhangpi,24.663717,93.906269,200,876,296,K Ranjit Singh and Korung Thung,1813,180,1414,1,24,2003
802,Ashmuqam,33.863371,75.281447,2036,786,171,Indian Police Force Convoy,2121,265,88,1,25,2003
803,Unknown,16.690933,79.567945,200,876,315,Party Leader Syed Dawood,243,25,61,1,25,2003
804,Kandlakunta,16.387372,79.292838,200,876,315,Party Leader Venkatrami Reddy,243,181,61,1,25,2003
805,Mandai,23.860327,91.47973,1514,86,73,Supporters,1813,180,62,1,26,2003
806,Atmakur,15.878893,78.585205,2036,417,12,"Raghunath Cinema in Atmakur, India",2121,61,61,1,26,2003
807,Mumbai,19.103052,72.846691,2036,1538,447,"Civilians in Ville Parle suburb of Bombay, India",2121,674,12,1,27,2003
808,Mumbai,19.075984,72.877656,2036,1538,447,"Civilians in Bombay, India",2121,674,12,1,27,2003
809,Chatroo,33.334514,75.715342,200,876,315,National Conference party official Farooq Ahmed,1813,1564,1414,1,28,2003
810,Shopian,33.717003,74.836092,2036,876,315,Private residence of party official Mohammed Shafi,2121,43,1414,1,28,2003
811,Budgam,34.021244,74.722282,2036,876,315,Private residence of a National Conference Party official,2121,533,1414,1,28,2003
812,Bogribari,26.199283,90.127707,1514,1538,189,Family of Suren Brahma,1813,180,8,1,28,2003
813,Srinagar,34.069832,74.809039,200,25,21,Editor Parvaz Sultan,1813,1564,1414,1,31,2003
814,Anantnag,33.733336,75.148983,2036,313,86,Indian Border Security Force patrol,2121,533,1414,1,31,2003
815,Abhapalli,21.278657,81.866144,1514,368,74,"Bus near Basaguda, Chhattisgarh state",1813,1564,61,2,2,2003
816,Frisal,33.758958,75.042109,1514,313,66,"Indian Ikhwanis in Frisal, Anantnag District, Jammu and Kashmir State",1813,1564,88,2,6,2003
817,Lokchao,24.663717,93.906269,1514,313,86,"BSF foot patrol near Lokchao village, Manipur State",1813,1564,9,2,10,2003
818,Chandwa,23.677186,84.739392,1514,786,164,"Police Station in Chandawa town, Latehar District, Jharkhand",1813,1564,24,2,10,2003
819,Amjharia,23.618734,84.765502,1514,786,171,"Police convoy on the Ranchi-Palamau Road, Latehar District, Jharkhand State",1813,1564,24,2,10,2003
820,Bankoot,34.467967,74.667911,592,1538,447,"Kashmiri civilians at Bonkoot village, Bandipore district",1813,1564,1414,2,12,2003
821,Srigeri Pado,16.409671,79.9774,1514,786,433,"Former village head, Srigeri Pado Village, Guntur District",1813,1564,34,2,16,2003
822,Baramulla district,34.205141,74.349494,2036,1538,78,Main market of Tehsil Chowk,2121,674,1414,2,20,2003
823,Guwahati,26.179222,91.753346,2036,313,63,"Indian Air Force Base in Guwahati, Assam State",2121,43,238,2,23,2003
824,Sunderbani,33.049293,74.490661,1514,417,221,"Indian citizens in Rai Sehot, Jammu and Kashmir",1813,1564,1414,2,25,2003
825,Santarampada,23.940848,91.988153,1514,313,77,"BSF polling party at Santarampada Village, Tripura",1813,1564,62,2,26,2003
826,Kulgam,33.644991,75.018031,1514,86,73,Member: Ghulam Rasool,1813,1564,92,3,5,2003
827,Digboi,27.400198,95.616598,2036,47,14,Digboi Refinery,2121,43,238,3,8,2003
828,Kathalguri,27.315444,95.286216,2036,47,14,Oil pipeline running from Duliajan to Kathalguri,2121,43,238,3,8,2003
829,Rangjuli,25.968843,90.935557,1514,417,221,"Civilians in Rangjuli, India",1813,180,238,3,8,2003
830,Bongaigaon,26.47998,90.559979,2036,786,164,"Police Armory in Bongaigaon, India",2121,43,238,3,8,2003
831,Doda District,33.14575,75.548049,2036,313,77,Indian Army in Doda District,2121,80,88,3,8,2003
832,Rajouri,33.371715,74.315313,2036,417,51,"Indian sweet shop in Rajauri, India",2121,61,92,3,11,2003
833,Mumbai,19.075984,72.877656,2036,368,205,"Mulund suburban commuter train station in Mumbai, India",2121,315,12,3,13,2003
834,Rajouri,33.371715,74.315313,2036,368,74,"Bus in Rajauri, India",2121,674,92,3,13,2003
835,Poonch,33.767001,74.092404,1514,1538,447,Civilians on Jammu-Poonch highway,1813,1564,92,3,13,2003
836,New Delhi,28.632381,77.220004,2036,368,205,New Delhi Railway Station,2121,674,1414,3,14,2003
837,Poonch,33.767001,74.092404,9,1538,19,"Muharram festival procession in Poonch, India",2121,533,100,3,14,2003
838,Budgam District,34.021244,74.722282,1514,876,315,Activist Abdul Gani Bhat,1813,1564,92,3,14,2003
839,Baramulla District,34.205141,74.349494,1514,876,315,People's Democratic Party activist,1813,1564,92,3,14,2003
840,Rajouri,33.371715,74.315313,437,1538,447,"Civilians in Nerojal village, India",382,329,92,3,15,2003
841,Udhampur,32.925224,75.135264,1514,786,433,"Indian Police in the Gool area of Udahampur District, Kashmir, India",1813,1564,88,3,15,2003
842,Bamungopha,26.372705,90.984023,2036,786,171,"Central Reserve Police Force convoy in Assam, India",2121,265,238,3,16,2003
843,Puhroo,33.778175,76.576171,1514,786,433,"Indian Police in Puhroo, India",1813,1564,3,3,17,2003
844,Bijbehara,33.792909,75.103907,2036,83,221,Unknown,2121,674,1414,3,17,2003
845,Narimarg,33.746944,75.012222,1514,1538,447,"Civilians in Nadi Marg, India",1813,180,100,3,23,2003
846,Srinagar,34.083658,74.797368,1514,786,433,"Police Officer in Srinagar, India",1813,1564,18,3,23,2003
847,Srinagar,34.069935,74.793683,1514,786,433,"CRPF personnel in Batamaloo, India",1813,1564,18,3,23,2003
848,Maphou,24.817943,94.137014,592,9,1,Heinrich Wolfgang,1813,1564,4,3,23,2003
849,Ahmedabad,23.022505,72.571362,1514,876,315,senior leader Haren Pandya,1813,1564,1414,3,26,2003
850,Malikpora,34.153695,74.667536,1514,1538,447,"Civilians in Malikpora, India.",1813,1564,92,3,26,2003
851,Jammu,32.726602,74.857026,2036,47,14,An oil tanker parked outside of an oil depot in Jammu,2121,674,1414,3,26,2003
852,Poonch,33.767001,74.092404,1514,1538,447,"Civilians in Poonch, India",1813,1564,92,3,28,2003
853,Banihal,33.437013,75.193934,1514,1538,447,"Civilians in Banihati, India",243,181,92,3,28,2003
854,Wagad,33.997604,75.080826,2036,313,63,"Kashmir army camp in Wagad, India",2121,43,92,3,28,2003
855,Gomanda,18.303802,83.328549,2036,368,205,"Gomanda railway station in Vizianagram district, India",2121,265,61,3,29,2003
856,Kamareddy,18.323704,78.334302,2036,876,143,"Revenue Divisional Office in Kamareddy, India",2121,265,61,3,30,2003
857,Khudwani,33.707373,75.105388,1514,876,315,"Abdul Razzaq, People's Democratic Party official, at his home in Khudwani Puhroo",1813,1564,1414,4,8,2003
858,Kanthapur,34.535556,74.341389,592,313,77,"Indian Home Guard member, Mohammad Afzal Bhat, while at his home in Kanthpora Sogam, India",243,181,1414,4,9,2003
859,Kulgam,33.644991,75.018031,2036,368,29,"Indiscriminate civilians waiting at a bus stop in Kulgam, Kashmir",2121,533,1414,4,12,2003
860,Qazigund,33.592697,75.165839,2036,368,29,"Indiscriminate civilians waiting at a bus stop in Qazigund, Kashmir",2121,533,1414,4,12,2003
861,Srinagar,34.069832,74.809039,2036,417,10,"Indiscriminate civilians at Punjab National Bank in Lalchowk, Kashmir",2121,533,1414,4,12,2003
862,Karpi,25.162086,84.73025,1514,1538,447,"Indiscriminate civilians in the Karpi area in Jehanabad district, India",1813,1564,61,4,13,2003
863,Nishat,34.132381,74.877739,2036,1538,447,"Indiscriminate civilians while at the Nishat garden in Srinagar, India",2121,533,1414,4,14,2003
864,Srinagar,34.083658,74.797368,2036,1538,447,"Indiscriminate civilians on Hari Singh High street in Srinagar, India",2121,533,1414,4,14,2003
865,Govindpur,24.782413,85.692921,2036,786,433,Indian policemen operating in Govindpur in the Bihar state,2121,265,24,4,15,2003
866,Gool,33.266512,75.004888,1514,786,433,Indian police officers,1813,180,1414,4,17,2003
867,Magam,34.091914,74.589914,2036,417,22,"Hospital in Magam, Badgam district",2121,674,1414,4,17,2003
868,Goriwan,34.001173,74.393934,2036,1538,186,Bashir Ahmad Mir,2121,265,1414,4,22,2003
869,Srinagar,34.083658,74.797368,2036,25,21,State radio and television station in Kashmir,2121,75,4,4,26,2003
870,Baramulla,34.205141,74.349494,2036,876,296,Muzaffar Hussain Beig,2121,80,1414,4,23,2003
871,Tral,33.932201,75.113944,1514,313,63,"An Indian border camp in Tral, 25 miles south of Srinagar, India",1813,1564,92,5,1,2003
872,Anantnag,33.733336,75.148983,2036,786,171,"A police vehicle in the Anantnag district, India",2121,533,1414,5,3,2003
873,Ganderbal,34.211864,74.770804,200,876,315,"Ghulam Ahmed Saloora, a National Conference leader, in Duderhama, India",2121,533,92,5,5,2003
874,Doda,33.14575,75.548049,2036,786,433,"A police group in Doda, India",2121,533,88,5,5,2003
